{"ast":null,"code":"import React,{useState,useEffect}from'react';import PowerLineAnimation from'./PowerLineAnimation';import{VoltageChart,CurrentChart,FaultPredictionChart}from'./Charts';import MapComponent from'./MapComponent';import{AlertSystem,AIPredictions}from'./AlertsAndPredictions';import ErrorBoundary from'./ErrorBoundary';import{FaBolt,FaPlug,FaChartBar,FaSyncAlt,FaChartLine}from'react-icons/fa';import{jsx as _jsx,jsxs as _jsxs,Fragment as _Fragment}from\"react/jsx-runtime\";const Dashboard=()=>{const[sensorData,setSensorData]=useState([]);const[poles,setPoles]=useState([]);const[loading,setLoading]=useState(true);// Generate mock data since we're operating in demonstration mode\nconst fetchSensorData=()=>{generateMockData();};// Fetch poles data (mock for now, can be replaced with actual API)\nconst fetchPolesData=async()=>{try{// For now, we'll use mock data. Replace with actual API call when available\n// const response = await axios.get('http://localhost:4000/api/poles');\n// setPoles(response.data);\n// Mock poles data with comprehensive Kerala coverage - 110 poles across all districts\n// Status is now dynamic based on sensor data conditions\nconst latestReading=sensorData.length>0?sensorData[sensorData.length-1]:null;// Determine status based on sensor data - only 1-2 poles show fault during line break\nconst getDynamicStatus=(baseStatus,poleId)=>{if(!latestReading)return baseStatus;// Check for critical line break condition (high current indicates line break)\nconst hasLineBreak=latestReading.current>15;const hasVoltageFault=latestReading.voltage<210||latestReading.voltage>245;const hasVibrationFault=latestReading.vibration>0.8;// Only specific poles show fault during line break (simulate actual line break location)\nconst faultPoles=[3,16];// Only Nemom and Kollam City show fault during line break\n// Critical fault conditions (red markers)\nif(hasLineBreak||hasVoltageFault||hasVibrationFault){// Only designated poles show fault (red)\nif(faultPoles.includes(poleId)){return'fault';}}// Warning conditions - only 1-2 poles show yellow for minor issues\nconst hasMinorCurrent=latestReading.current>12&&latestReading.current<=15;const hasMinorVoltage=(latestReading.voltage<220||latestReading.voltage>240)&&latestReading.voltage>=210&&latestReading.voltage<=245;const hasMinorVibration=latestReading.vibration>0.5&&latestReading.vibration<=0.8;if(hasMinorCurrent||hasMinorVoltage||hasMinorVibration){// Only 2 specific poles show warning (yellow) for minor issues\nconst warningPoles=[17,59];// Only Paravur and Ernakulam show warning\nif(warningPoles.includes(poleId)){return'warning';}}return'clear';};const mockPoles=[// Thiruvananthapuram District (15 poles)\n{id:1,lat:8.5244,lng:76.9366,status:getDynamicStatus('clear',1),name:'TVM Central'},{id:2,lat:8.3405,lng:76.8723,status:getDynamicStatus('clear',2),name:'Neyyattinkara'},{id:3,lat:8.4847,lng:76.9489,status:getDynamicStatus('clear',3),name:'Nemom'},{id:4,lat:8.5066,lng:76.9572,status:getDynamicStatus('clear',4),name:'Pettah'},{id:5,lat:8.5101,lng:76.9543,status:getDynamicStatus('clear',5),name:'Palayam'},{id:6,lat:8.4324,lng:76.9799,status:getDynamicStatus('clear',6),name:'Vellayani'},{id:7,lat:8.6764,lng:76.8102,status:getDynamicStatus('clear',7),name:'Attingal'},{id:8,lat:8.7389,lng:76.7164,status:getDynamicStatus('clear',8),name:'Varkala'},{id:9,lat:8.2563,lng:77.0864,status:getDynamicStatus('clear',9),name:'Parassala'},{id:10,lat:8.1677,lng:77.0733,status:getDynamicStatus('clear',10),name:'Kanyakumari Border'},{id:11,lat:8.3540,lng:76.8935,status:getDynamicStatus('clear',11),name:'Balaramapuram'},{id:12,lat:8.3879,lng:76.9799,status:getDynamicStatus('clear',12),name:'Vizhinjam'},{id:13,lat:8.5661,lng:76.8832,status:getDynamicStatus('clear',13),name:'Kazhakoottam'},{id:14,lat:8.3616,lng:77.0643,status:getDynamicStatus('clear',14),name:'Poovar'},{id:15,lat:8.4008,lng:76.9789,status:getDynamicStatus('clear',15),name:'Kovalam'},// Kollam District (10 poles)\n{id:16,lat:8.8932,lng:76.6141,status:getDynamicStatus('clear',16),name:'Kollam City'},{id:17,lat:8.9673,lng:76.6451,status:getDynamicStatus('clear',17),name:'Paravur'},{id:18,lat:8.7794,lng:76.6892,status:getDynamicStatus('clear',18),name:'Punalur'},{id:19,lat:8.8547,lng:76.6178,status:getDynamicStatus('clear',19),name:'Chavara'},{id:20,lat:8.9157,lng:76.6342,status:getDynamicStatus('clear',20),name:'Anchal'},{id:21,lat:8.8863,lng:76.6217,status:getDynamicStatus('clear',21),name:'Kottarakkara'},{id:22,lat:8.9401,lng:76.6432,status:getDynamicStatus('clear',22),name:'Karunagappally'},{id:23,lat:8.7531,lng:76.6894,status:getDynamicStatus('clear',23),name:'Pathanapuram'},{id:24,lat:8.8254,lng:76.6313,status:getDynamicStatus('clear',24),name:'Ochira'},{id:25,lat:8.9298,lng:76.6547,status:getDynamicStatus('clear',25),name:'Sasthamcotta'},// Pathanamthitta District (8 poles)\n{id:26,lat:9.2648,lng:76.7873,status:'clear',name:'Pathanamthitta'},{id:27,lat:9.3442,lng:76.8174,status:'clear',name:'Thiruvalla'},{id:28,lat:9.2181,lng:76.7367,status:'clear',name:'Adoor'},{id:29,lat:9.3894,lng:76.8201,status:'clear',name:'Chengannur'},{id:30,lat:9.2897,lng:76.6782,status:'clear',name:'Pandalam'},{id:31,lat:9.4369,lng:76.8844,status:'clear',name:'Aranmula'},{id:32,lat:9.1567,lng:76.7234,status:'clear',name:'Konni'},{id:33,lat:9.2234,lng:76.8567,status:'clear',name:'Mallappally'},// Alappuzha District (9 poles)\n{id:34,lat:9.4981,lng:76.3388,status:'clear',name:'Alappuzha'},{id:35,lat:9.5916,lng:76.5222,status:'clear',name:'Cherthala'},{id:36,lat:9.4459,lng:76.4072,status:'clear',name:'Haripad'},{id:37,lat:9.3847,lng:76.4471,status:'clear',name:'Kayamkulam'},{id:38,lat:9.4971,lng:76.3411,status:'clear',name:'Ambalappuzha'},{id:39,lat:9.4931,lng:76.4534,status:'clear',name:'Kuttanad'},{id:40,lat:9.5182,lng:76.4254,status:'clear',name:'Mararikulam'},{id:41,lat:9.6234,lng:76.5432,status:'clear',name:'Aroor'},{id:42,lat:9.4123,lng:76.3987,status:'clear',name:'Mavelikara'},// Kottayam District (8 poles)\n{id:43,lat:9.5916,lng:76.5222,status:'clear',name:'Kottayam'},{id:44,lat:9.6205,lng:76.6132,status:'clear',name:'Changanassery'},{id:45,lat:9.6847,lng:76.7351,status:'clear',name:'Pala'},{id:46,lat:9.5234,lng:76.4987,status:'clear',name:'Ettumanoor'},{id:47,lat:9.7456,lng:76.6234,status:'clear',name:'Mundakayam'},{id:48,lat:9.5678,lng:76.5891,status:'clear',name:'Vaikom'},{id:49,lat:9.6789,lng:76.5432,status:'clear',name:'Kumarakom'},{id:50,lat:9.6543,lng:76.6789,status:'clear',name:'Erattupetta'},// Idukki District (7 poles)\n{id:51,lat:9.8501,lng:76.9723,status:'clear',name:'Idukki Dam'},{id:52,lat:10.0889,lng:76.5157,status:'clear',name:'Munnar'},{id:53,lat:9.9234,lng:76.8567,status:'clear',name:'Thodupuzha'},{id:54,lat:9.7654,lng:76.7891,status:'warning',name:'Kumily'},{id:55,lat:9.8765,lng:76.6543,status:'clear',name:'Peermade'},{id:56,lat:9.9876,lng:76.7234,status:'clear',name:'Adimali'},{id:57,lat:9.8123,lng:76.9012,status:'clear',name:'Nedumkandam'},// Ernakulam District (12 poles)\n{id:58,lat:9.9312,lng:76.2673,status:'clear',name:'Kochi Central'},{id:59,lat:9.9816,lng:76.2835,status:'warning',name:'Ernakulam'},{id:60,lat:10.0421,lng:76.2708,status:'clear',name:'Vypin'},{id:61,lat:9.9647,lng:76.2376,status:'clear',name:'Fort Kochi'},{id:62,lat:9.9589,lng:76.2932,status:'clear',name:'Marine Drive'},{id:63,lat:10.0621,lng:76.3456,status:'clear',name:'Aluva'},{id:64,lat:9.8234,lng:76.3987,status:'clear',name:'Tripunithura'},{id:65,lat:10.1234,lng:76.4567,status:'clear',name:'Perumbavoor'},{id:66,lat:9.8765,lng:76.5432,status:'clear',name:'Kothamangalam'},{id:67,lat:10.0987,lng:76.2945,status:'clear',name:'Kalamassery'},{id:68,lat:9.9123,lng:76.4789,status:'clear',name:'Muvattupuzha'},{id:69,lat:10.1567,lng:76.3421,status:'clear',name:'Angamaly'},// Thrissur District (10 poles)\n{id:70,lat:10.5276,lng:76.2144,status:'clear',name:'Thrissur City'},{id:71,lat:10.4234,lng:76.1567,status:'clear',name:'Guruvayur'},{id:72,lat:10.5678,lng:76.3456,status:'clear',name:'Irinjalakuda'},{id:73,lat:10.6789,lng:76.2789,status:'clear',name:'Kodungallur'},{id:74,lat:10.4987,lng:76.4321,status:'clear',name:'Chalakudy'},{id:75,lat:10.3456,lng:76.2134,status:'clear',name:'Kunnamkulam'},{id:76,lat:10.6234,lng:76.2476,status:'clear',name:'Chavakkad'},{id:77,lat:10.5432,lng:76.3789,status:'clear',name:'Wadakkanchery'},{id:78,lat:10.4567,lng:76.3234,status:'clear',name:'Ollur'},{id:79,lat:10.3789,lng:76.2567,status:'clear',name:'Taliparamba Junction'},// Palakkad District (8 poles)\n{id:80,lat:10.7867,lng:76.6548,status:'clear',name:'Palakkad'},{id:81,lat:10.8234,lng:76.7891,status:'clear',name:'Ottappalam'},{id:82,lat:10.6789,lng:76.5432,status:'clear',name:'Chittur'},{id:83,lat:10.9123,lng:76.6789,status:'clear',name:'Shornur'},{id:84,lat:10.7456,lng:76.8234,status:'clear',name:'Mannarkkad'},{id:85,lat:10.6543,lng:76.7654,status:'clear',name:'Alathur'},{id:86,lat:10.8765,lng:76.5987,status:'clear',name:'Pattambi'},{id:87,lat:10.5987,lng:76.6234,status:'clear',name:'Cherpulassery'},// Malappuram District (9 poles)\n{id:88,lat:11.0748,lng:76.0781,status:'clear',name:'Malappuram'},{id:89,lat:11.2234,lng:75.9876,status:'clear',name:'Manjeri'},{id:90,lat:11.1234,lng:76.1567,status:'clear',name:'Perinthalmanna'},{id:91,lat:11.0567,lng:76.2345,status:'clear',name:'Tirur'},{id:92,lat:10.9876,lng:76.1789,status:'clear',name:'Kottakkal'},{id:93,lat:11.1567,lng:75.8234,status:'clear',name:'Nilambur'},{id:94,lat:11.3456,lng:76.0987,status:'warning',name:'Kondotty'},{id:95,lat:11.0234,lng:75.9567,status:'clear',name:'Wandoor'},{id:96,lat:11.2789,lng:76.0432,status:'clear',name:'Areekode'},// Kozhikode District (8 poles)\n{id:97,lat:11.2588,lng:75.7804,status:'clear',name:'Kozhikode City'},{id:98,lat:11.4234,lng:75.8567,status:'clear',name:'Vadakara'},{id:99,lat:11.1789,lng:75.7934,status:'clear',name:'Beypore'},{id:100,lat:11.3567,lng:75.7891,status:'clear',name:'Koyilandy'},{id:101,lat:11.0987,lng:75.8432,status:'clear',name:'Feroke'},{id:102,lat:11.2345,lng:75.7489,status:'clear',name:'Ramanattukara'},{id:103,lat:11.4567,lng:75.7543,status:'clear',name:'Thalassery Road'},{id:104,lat:11.1876,lng:75.9123,status:'clear',name:'Mukkam'},// Wayanad District (4 poles)\n{id:105,lat:11.6051,lng:76.0821,status:'clear',name:'Kalpetta'},{id:106,lat:11.7234,lng:76.1567,status:'clear',name:'Sulthan Bathery'},{id:107,lat:11.5789,lng:76.2345,status:'clear',name:'Mananthavady'},{id:108,lat:11.6567,lng:76.0987,status:'clear',name:'Vythiri'},// Kannur District (6 poles)\n{id:109,lat:11.8745,lng:75.3704,status:'clear',name:'Kannur City'},{id:110,lat:12.0234,lng:75.2567,status:'clear',name:'Thalassery'}];setPoles(mockPoles);}catch(err){console.error('Error fetching poles data:',err);}};// Generate mock data if backend is not available\nconst generateMockData=()=>{const mockData=[];const now=new Date();for(let i=0;i<20;i++){const timestamp=new Date(now.getTime()-i*300000);// Every 5 minutes\nmockData.unshift({id:i+1,voltage:230+(Math.random()-0.5)*20,// 220-240V range\ncurrent:10+Math.random()*8,// 10-18A range\nvibration:Math.random()*0.6,// 0-0.6g range\ntimestamp:timestamp});}setSensorData(mockData);};useEffect(()=>{fetchSensorData();const interval=setInterval(fetchSensorData,30000);// Fetch every 30 seconds\nsetLoading(false);return()=>clearInterval(interval);},[]);useEffect(()=>{fetchPolesData();},[sensorData]);const latestReading=sensorData.length>0?sensorData[sensorData.length-1]:null;if(loading){return/*#__PURE__*/_jsx(\"div\",{className:\"min-h-screen bg-main-gradient flex items-center justify-center\",children:/*#__PURE__*/_jsxs(\"div\",{className:\"text-center\",children:[/*#__PURE__*/_jsx(\"div\",{className:\"animate-spin rounded-full h-32 w-32 border-b-2 border-emerald-green mb-4\"}),/*#__PURE__*/_jsx(\"p\",{className:\"text-white text-xl\",children:\"Loading Dashboard...\"})]})});}return/*#__PURE__*/_jsxs(\"div\",{className:\"min-h-screen bg-main-gradient p-4 space-y-6\",children:[/*#__PURE__*/_jsxs(\"header\",{className:\"text-center py-8 md:py-12 relative overflow-hidden bg-black/20 backdrop-blur-sm rounded-2xl mb-6 transition-all duration-500 hover:bg-black/25 hover:shadow-[0_0_30px_rgba(59,130,246,0.2)] fade-in-section\",children:[/*#__PURE__*/_jsx(\"div\",{className:\"absolute inset-0 bg-gradient-to-br from-blue-900/50 via-blue-800/30 to-blue-700/20 rounded-2xl\"}),/*#__PURE__*/_jsxs(\"div\",{className:\"relative z-10\",children:[/*#__PURE__*/_jsx(\"h1\",{className:\"text-4xl md:text-5xl font-black mb-6 tracking-tight\",children:/*#__PURE__*/_jsx(\"span\",{className:\"text-white drop-shadow-[0_0_20px_rgba(59,130,246,0.8)] filter brightness-125\",children:\"PowerLine Monitor\"})}),/*#__PURE__*/_jsx(\"div\",{className:\"w-24 h-1.5 bg-gradient-to-r from-blue-400 via-cyan-400 to-blue-400 mx-auto mb-6 rounded-full shadow-[0_0_20px_rgba(59,130,246,0.6)]\"}),/*#__PURE__*/_jsx(\"p\",{className:\"text-lg font-semibold max-w-4xl mx-auto leading-relaxed\",children:/*#__PURE__*/_jsx(\"span\",{className:\"text-white text-xl drop-shadow-lg\",children:\"Driving Safer, Sustainable, and Smarter Power Line Management\"})})]})]}),/*#__PURE__*/_jsx(\"section\",{className:\"mb-12 fade-in-section\",children:/*#__PURE__*/_jsx(\"div\",{className:\"container mx-auto\",children:/*#__PURE__*/_jsxs(\"div\",{className:\"grid grid-cols-1 lg:grid-cols-2 gap-8 items-stretch\",children:[/*#__PURE__*/_jsx(\"div\",{className:\"bg-black/30 backdrop-blur-xl rounded-3xl p-6 border-2 border-blue-500/50 shadow-[0_0_30px_rgba(59,130,246,0.3)] h-full flex flex-col transition-all duration-500 hover:bg-black/35 hover:border-blue-400/60 hover:shadow-[0_0_40px_rgba(59,130,246,0.4)] professional-card enhanced-backdrop-blur\",children:/*#__PURE__*/_jsxs(\"div\",{className:\"bg-gradient-to-br from-blue-900/60 via-blue-800/40 to-blue-700/30 rounded-2xl p-6 border border-blue-400/30 transition-all duration-300 hover:border-blue-300/40 h-full flex flex-col\",children:[/*#__PURE__*/_jsx(\"h1\",{className:\"text-2xl md:text-3xl font-black mb-6 leading-tight tracking-tight\",children:/*#__PURE__*/_jsx(\"span\",{className:\"text-white drop-shadow-[0_0_15px_rgba(59,130,246,0.8)] filter brightness-110\",children:\"PowerLine Monitor\"})}),/*#__PURE__*/_jsx(\"div\",{className:\"w-20 h-1.5 bg-gradient-to-r from-blue-400 via-cyan-400 to-blue-400 mb-6 rounded-full shadow-[0_0_15px_rgba(59,130,246,0.6)] lg:mx-0\"}),/*#__PURE__*/_jsxs(\"div\",{className:\"flex-1 space-y-8 text-white overflow-y-auto\",children:[/*#__PURE__*/_jsx(\"div\",{children:/*#__PURE__*/_jsx(\"p\",{className:\"text-base md:text-lg leading-relaxed text-white font-medium\",children:\"Our solution offers a cutting-edge IoT-powered system for real-time monitoring and intelligent fault detection of Low Tension (LT) power lines. Using a network of sensors\\u2014including current, voltage, vibration, and tilt detectors\\u2014it continuously monitors the condition of electrical lines to detect faults caused by accidents, wear, or weather.\"})}),/*#__PURE__*/_jsx(\"div\",{children:/*#__PURE__*/_jsx(\"p\",{className:\"text-base md:text-lg leading-relaxed text-white font-medium\",children:\"The collected data is securely transmitted via MQTT/HTTP protocols to a cloud-based backend, where advanced algorithms analyze it for any signs of malfunction.\"})}),/*#__PURE__*/_jsx(\"div\",{children:/*#__PURE__*/_jsx(\"p\",{className:\"text-base md:text-lg leading-relaxed text-white font-medium\",children:\"When a fault is detected, the system automatically isolates the affected section by activating a relay, reducing power outages and preventing further damage. At the same time, instant alerts are sent to utility providers, enabling rapid and efficient maintenance.\"})}),/*#__PURE__*/_jsx(\"div\",{children:/*#__PURE__*/_jsx(\"p\",{className:\"text-base md:text-lg leading-relaxed text-white font-medium\",children:\"Our platform uses advanced AI and Machine Learning to predict potential faults by analyzing real-time and historical sensor data. This enables early detection of anomalies, allowing utility providers to take preventive action before failures occur. By turning reactive maintenance into proactive management, we enhance grid reliability, reduce downtime, and improve overall system efficiency.\"})}),/*#__PURE__*/_jsxs(\"div\",{children:[/*#__PURE__*/_jsxs(\"h3\",{className:\"text-lg md:text-xl font-bold text-white mb-3 flex items-center gap-2\",children:[/*#__PURE__*/_jsx(FaBolt,{className:\"text-yellow-400 drop-shadow-[0_0_10px_rgba(251,191,36,0.6)]\"}),/*#__PURE__*/_jsx(\"span\",{className:\"text-white drop-shadow-[0_0_10px_rgba(72,202,228,0.5)]\",children:\"Why Choose Us?\"})]}),/*#__PURE__*/_jsx(\"p\",{className:\"text-base md:text-lg leading-relaxed text-white font-medium\",children:\"Empower your energy management with smart monitoring, automated fault resolution, and faster service response \\u2014 making your power infrastructure safer, more reliable, and future-ready.\"})]})]})]})}),/*#__PURE__*/_jsxs(\"div\",{className:\"space-y-6 h-full flex flex-col\",children:[/*#__PURE__*/_jsx(\"div\",{className:\"text-center mb-4\",children:/*#__PURE__*/_jsx(\"h2\",{className:\"text-2xl font-bold text-white drop-shadow-[0_0_15px_rgba(59,130,246,0.8)] filter brightness-110 mb-6\",children:\"Current Flow Visualization\"})}),/*#__PURE__*/_jsx(\"div\",{className:\"flex-1 flex items-center justify-center\",children:/*#__PURE__*/_jsx(PowerLineAnimation,{status:(latestReading===null||latestReading===void 0?void 0:latestReading.current)>15?'fault':(latestReading===null||latestReading===void 0?void 0:latestReading.voltage)<220||(latestReading===null||latestReading===void 0?void 0:latestReading.voltage)>240?'warning':'normal'})}),/*#__PURE__*/_jsxs(\"div\",{className:\"bg-black/30 backdrop-blur-xl rounded-2xl p-6 border-2 border-blue-500/50 shadow-[0_0_30px_rgba(59,130,246,0.3)] transition-all duration-500 hover:bg-black/35 hover:shadow-[0_0_40px_rgba(59,130,246,0.4)]\",children:[/*#__PURE__*/_jsx(\"h3\",{className:\"text-xl font-bold text-white mb-4 text-center drop-shadow-[0_0_10px_rgba(59,130,246,0.8)]\",children:\"Current Status\"}),latestReading?/*#__PURE__*/_jsxs(\"div\",{className:\"space-y-4\",children:[/*#__PURE__*/_jsxs(\"div\",{className:\"grid grid-cols-1 sm:grid-cols-3 gap-6\",children:[/*#__PURE__*/_jsxs(\"div\",{className:\"glass-morphism glass-morphism-hover card-hover rounded-xl p-6 text-center glow-border pulse-glow-enhanced professional-card\",children:[/*#__PURE__*/_jsx(\"div\",{className:\"text-3xl mb-2 float text-yellow-400\",children:/*#__PURE__*/_jsx(FaBolt,{})}),/*#__PURE__*/_jsx(\"div\",{className:\"text-xs text-white mb-2 font-bold text-glow\",children:\"Voltage\"}),/*#__PURE__*/_jsxs(\"div\",{className:\"text-2xl font-bold text-white mb-2\",children:[latestReading.voltage.toFixed(1),\"V\"]}),/*#__PURE__*/_jsx(\"div\",{className:\"text-sm font-bold px-3 py-1 rounded-full glow-border \".concat(latestReading.voltage>=220&&latestReading.voltage<=240?'text-green-300 bg-green-500/20':'text-yellow-300 bg-yellow-500/20'),children:latestReading.voltage>=220&&latestReading.voltage<=240?'Normal':'Warning'})]}),/*#__PURE__*/_jsxs(\"div\",{className:\"glass-morphism glass-morphism-hover card-hover rounded-xl p-6 text-center glow-border pulse-glow-enhanced professional-card\",children:[/*#__PURE__*/_jsx(\"div\",{className:\"text-3xl mb-2 float text-blue-400\",children:/*#__PURE__*/_jsx(FaPlug,{})}),/*#__PURE__*/_jsx(\"div\",{className:\"text-xs text-white mb-2 font-bold text-glow\",children:\"Current\"}),/*#__PURE__*/_jsxs(\"div\",{className:\"text-2xl font-bold text-white mb-2\",children:[latestReading.current.toFixed(1),\"A\"]}),/*#__PURE__*/_jsx(\"div\",{className:\"text-sm font-bold px-3 py-1 rounded-full glow-border \".concat(latestReading.current<=15?'text-green-300 bg-green-500/20':'text-red-300 bg-red-500/20'),children:latestReading.current<=15?'Normal':'High'})]}),/*#__PURE__*/_jsxs(\"div\",{className:\"glass-morphism glass-morphism-hover card-hover rounded-xl p-6 text-center glow-border pulse-glow-enhanced professional-card\",children:[/*#__PURE__*/_jsx(\"div\",{className:\"text-3xl mb-2 float text-green-400\",children:/*#__PURE__*/_jsx(FaChartBar,{})}),/*#__PURE__*/_jsx(\"div\",{className:\"text-xs text-white mb-2 font-bold text-glow\",children:\"Vibration\"}),/*#__PURE__*/_jsxs(\"div\",{className:\"text-2xl font-bold text-white mb-2\",children:[latestReading.vibration.toFixed(2),\"g\"]}),/*#__PURE__*/_jsx(\"div\",{className:\"text-sm font-bold px-3 py-1 rounded-full glow-border \".concat(latestReading.vibration<=0.8?'text-green-300 bg-green-500/20':'text-red-300 bg-red-500/20'),children:latestReading.vibration<=0.8?'Normal':'High'})]})]}),/*#__PURE__*/_jsxs(\"div\",{className:\"border-t border-white/30 pt-4\",children:[/*#__PURE__*/_jsxs(\"div\",{className:\"flex justify-between items-center mb-4\",children:[/*#__PURE__*/_jsx(\"span\",{className:\"text-white font-bold text-base\",children:\"System Health\"}),/*#__PURE__*/_jsx(\"span\",{className:\"px-4 py-2 rounded-full text-sm font-bold border-2 \".concat(latestReading.voltage>=220&&latestReading.voltage<=240&&latestReading.current<=15&&latestReading.vibration<=0.8?'bg-green-100 text-green-800 border-green-300':latestReading.current>15||latestReading.vibration>0.8?'bg-red-100 text-red-800 border-red-300':'bg-yellow-100 text-yellow-800 border-yellow-300'),children:latestReading.voltage>=220&&latestReading.voltage<=240&&latestReading.current<=15&&latestReading.vibration<=0.8?'OPTIMAL':latestReading.current>15||latestReading.vibration>0.8?'CRITICAL':'WARNING'})]}),/*#__PURE__*/_jsxs(\"div\",{className:\"space-y-3\",children:[/*#__PURE__*/_jsxs(\"div\",{className:\"flex justify-between text-base\",children:[/*#__PURE__*/_jsx(\"span\",{className:\"text-gray-300 font-semibold\",children:\"Power Quality:\"}),/*#__PURE__*/_jsx(\"span\",{className:\"text-white font-bold\",children:\"Stable\"})]}),/*#__PURE__*/_jsxs(\"div\",{className:\"flex justify-between text-base\",children:[/*#__PURE__*/_jsx(\"span\",{className:\"text-gray-300 font-semibold\",children:\"Load Balance:\"}),/*#__PURE__*/_jsxs(\"span\",{className:\"text-white font-bold\",children:[(latestReading.current/20*100).toFixed(0),\"%\"]})]}),/*#__PURE__*/_jsxs(\"div\",{className:\"flex justify-between text-base\",children:[/*#__PURE__*/_jsx(\"span\",{className:\"text-gray-300 font-semibold\",children:\"Last Update:\"}),/*#__PURE__*/_jsx(\"span\",{className:\"text-white font-bold\",children:new Date(latestReading.timestamp).toLocaleTimeString()})]})]})]})]}):/*#__PURE__*/_jsxs(\"div\",{className:\"text-center py-8\",children:[/*#__PURE__*/_jsx(\"div\",{className:\"text-non-photo-blue mb-2 text-lg font-semibold\",children:\"No sensor data available\"}),/*#__PURE__*/_jsx(\"div\",{className:\"text-sm text-vivid-sky-blue/70\",children:\"Waiting for connection...\"})]})]})]})]})})}),/*#__PURE__*/_jsx(\"section\",{id:\"powerline-map\",className:\"mb-10 relative z-10\",children:/*#__PURE__*/_jsxs(\"div\",{className:\"container mx-auto px-4\",children:[/*#__PURE__*/_jsxs(\"div\",{className:\"text-center mb-6\",children:[/*#__PURE__*/_jsx(\"h2\",{className:\"text-2xl font-bold mb-4\",children:/*#__PURE__*/_jsx(\"span\",{className:\"text-white text-glow drop-shadow-2xl\",children:\"Power line Map\"})}),/*#__PURE__*/_jsx(\"div\",{className:\"w-20 h-1 bg-gradient-to-r from-vivid-sky-blue via-non-photo-blue to-light-cyan mx-auto rounded-full\"}),/*#__PURE__*/_jsx(\"p\",{className:\"text-gray-200 mt-4 text-lg font-bold max-w-2xl mx-auto\",children:\"Real-time monitoring of distributed power infrastructure with intelligent status tracking\"})]}),/*#__PURE__*/_jsx(\"div\",{className:\"w-full max-w-6xl mx-auto bg-black/20 backdrop-blur-xl rounded-2xl p-6 border border-blue-500/30 shadow-[0_0_30px_rgba(59,130,246,0.2)]\",children:/*#__PURE__*/_jsx(ErrorBoundary,{fallbackMessage:\"Failed to load power line map\",children:/*#__PURE__*/_jsx(MapComponent,{poles:poles})})})]})}),/*#__PURE__*/_jsxs(\"section\",{id:\"performance-analytics\",className:\"mb-10\",children:[/*#__PURE__*/_jsxs(\"div\",{className:\"text-center mb-6\",children:[/*#__PURE__*/_jsx(\"h2\",{className:\"text-2xl font-bold mb-4\",children:/*#__PURE__*/_jsx(\"span\",{className:\"text-white text-glow drop-shadow-2xl\",children:\"Performance Analytics\"})}),/*#__PURE__*/_jsx(\"div\",{className:\"w-20 h-1 bg-gradient-to-r from-vivid-sky-blue via-non-photo-blue to-light-cyan mx-auto rounded-full\"}),/*#__PURE__*/_jsx(\"p\",{className:\"text-lg text-gray-200 font-bold max-w-3xl mx-auto mt-4\",children:\"Real-time data visualization and trend analysis for comprehensive power line monitoring\"})]}),/*#__PURE__*/_jsx(\"div\",{className:\"grid grid-cols-1 lg:grid-cols-3 gap-8\",children:sensorData.length>0?/*#__PURE__*/_jsxs(_Fragment,{children:[/*#__PURE__*/_jsx(ErrorBoundary,{fallbackMessage:\"Failed to load voltage chart\",children:/*#__PURE__*/_jsx(VoltageChart,{data:sensorData.slice(-10)})}),/*#__PURE__*/_jsx(ErrorBoundary,{fallbackMessage:\"Failed to load current chart\",children:/*#__PURE__*/_jsx(CurrentChart,{data:sensorData.slice(-10)})}),/*#__PURE__*/_jsx(ErrorBoundary,{fallbackMessage:\"Failed to load prediction chart\",children:/*#__PURE__*/_jsx(FaultPredictionChart,{data:sensorData.slice(-10)})})]}):/*#__PURE__*/_jsxs(\"div\",{className:\"col-span-full text-center py-12\",children:[/*#__PURE__*/_jsx(\"div\",{className:\"text-gray-400 text-lg mb-2\",children:\"No data available for analysis\"}),/*#__PURE__*/_jsx(\"div\",{className:\"text-gray-500\",children:\"Charts will appear once sensor data is received\"})]})})]}),/*#__PURE__*/_jsxs(\"section\",{id:\"intelligent-monitoring\",className:\"mb-10\",children:[/*#__PURE__*/_jsxs(\"div\",{className:\"text-center mb-8\",children:[/*#__PURE__*/_jsx(\"h2\",{className:\"text-2xl font-bold mb-4\",children:/*#__PURE__*/_jsx(\"span\",{className:\"text-white text-glow drop-shadow-2xl\",children:\"Intelligent Monitoring System\"})}),/*#__PURE__*/_jsx(\"div\",{className:\"w-24 h-1 bg-gradient-to-r from-vivid-sky-blue via-non-photo-blue to-light-cyan mx-auto mb-4 rounded-full\"}),/*#__PURE__*/_jsx(\"p\",{className:\"text-lg text-gray-200 font-bold max-w-3xl mx-auto leading-relaxed\",children:\"Advanced AI-powered alert system with predictive analytics for proactive maintenance and fault prevention\"})]}),/*#__PURE__*/_jsxs(\"div\",{className:\"grid grid-cols-1 lg:grid-cols-2 gap-8\",children:[/*#__PURE__*/_jsx(\"div\",{className:\"min-h-[600px]\",children:/*#__PURE__*/_jsx(ErrorBoundary,{fallbackMessage:\"Failed to load system alerts\",children:/*#__PURE__*/_jsx(AlertSystem,{sensorData:sensorData})})}),/*#__PURE__*/_jsx(\"div\",{className:\"min-h-[600px]\",children:/*#__PURE__*/_jsx(ErrorBoundary,{fallbackMessage:\"Failed to load AI predictions\",children:/*#__PURE__*/_jsx(AIPredictions,{sensorData:sensorData})})})]})]}),/*#__PURE__*/_jsx(\"section\",{className:\"mb-10\",children:/*#__PURE__*/_jsxs(\"div\",{className:\"glass-morphism glass-morphism-hover rounded-3xl p-8 backdrop-blur-md glow-border shadow-glow text-center\",children:[/*#__PURE__*/_jsx(\"h2\",{className:\"text-2xl font-bold text-white mb-6\",children:/*#__PURE__*/_jsx(\"span\",{className:\"text-white text-glow drop-shadow-2xl\",children:\"System Status Overview\"})}),/*#__PURE__*/_jsx(\"div\",{className:\"w-24 h-1 bg-gradient-to-r from-vivid-sky-blue via-non-photo-blue to-light-cyan mx-auto mb-6 rounded-full\"}),/*#__PURE__*/_jsxs(\"div\",{className:\"grid grid-cols-1 sm:grid-cols-2 lg:grid-cols-4 gap-6\",children:[/*#__PURE__*/_jsxs(\"div\",{className:\"glass-morphism glass-morphism-hover card-hover rounded-2xl p-4 glow-border shadow-glow\",children:[/*#__PURE__*/_jsx(\"div\",{className:\"text-3xl mb-2 float text-blue-400\",children:/*#__PURE__*/_jsx(FaChartBar,{})}),/*#__PURE__*/_jsx(\"h3\",{className:\"text-white font-bold text-base mb-2\",children:\"Total Sensors\"}),/*#__PURE__*/_jsx(\"p\",{className:\"text-2xl font-bold text-white mb-2\",children:poles.length}),/*#__PURE__*/_jsx(\"p\",{className:\"text-gray-300 text-sm font-medium\",children:\"Active monitoring\"})]}),/*#__PURE__*/_jsxs(\"div\",{className:\"glass-morphism glass-morphism-hover card-hover rounded-2xl p-4 glow-border shadow-glow\",children:[/*#__PURE__*/_jsx(\"div\",{className:\"text-3xl mb-2 float text-yellow-400\",children:/*#__PURE__*/_jsx(FaBolt,{})}),/*#__PURE__*/_jsx(\"h3\",{className:\"text-white font-bold text-base mb-2\",children:\"Active Poles\"}),/*#__PURE__*/_jsx(\"p\",{className:\"text-2xl font-bold text-white mb-2\",children:poles.length}),/*#__PURE__*/_jsx(\"p\",{className:\"text-gray-300 text-sm font-medium\",children:\"Operational units\"})]}),/*#__PURE__*/_jsxs(\"div\",{className:\"glass-morphism glass-morphism-hover card-hover rounded-2xl p-4 glow-border shadow-glow\",children:[/*#__PURE__*/_jsx(\"div\",{className:\"text-3xl mb-2 float text-green-400\",children:/*#__PURE__*/_jsx(FaChartLine,{})}),/*#__PURE__*/_jsx(\"h3\",{className:\"text-white font-bold text-base mb-2\",children:\"Data Points\"}),/*#__PURE__*/_jsx(\"p\",{className:\"text-2xl font-bold text-white mb-2\",children:sensorData.length}),/*#__PURE__*/_jsx(\"p\",{className:\"text-gray-300 text-sm font-medium\",children:\"Collected metrics\"})]}),/*#__PURE__*/_jsxs(\"div\",{className:\"glass-morphism glass-morphism-hover card-hover rounded-2xl p-4 glow-border shadow-glow\",children:[/*#__PURE__*/_jsx(\"div\",{className:\"text-3xl mb-2 float text-blue-400\",children:/*#__PURE__*/_jsx(FaSyncAlt,{})}),/*#__PURE__*/_jsx(\"h3\",{className:\"text-white font-bold text-base mb-2\",children:\"Last Update\"}),/*#__PURE__*/_jsx(\"p\",{className:\"text-base font-bold text-white mb-2\",children:latestReading?new Date(latestReading.timestamp).toLocaleTimeString():'N/A'}),/*#__PURE__*/_jsx(\"p\",{className:\"text-gray-300 text-sm font-medium\",children:\"System sync\"})]})]})]})}),/*#__PURE__*/_jsx(\"footer\",{className:\"w-screen relative left-1/2 right-1/2 -ml-[50vw] -mr-[50vw] mt-16\",children:/*#__PURE__*/_jsx(\"div\",{className:\"bg-gradient-to-r from-federal-blue via-marian-blue to-honolulu-blue py-12 px-8\",children:/*#__PURE__*/_jsxs(\"div\",{className:\"max-w-6xl mx-auto text-center\",children:[/*#__PURE__*/_jsxs(\"div\",{className:\"mb-6\",children:[/*#__PURE__*/_jsx(\"h3\",{className:\"text-2xl font-bold text-white mb-4 text-center\",children:/*#__PURE__*/_jsx(\"span\",{className:\"text-white text-glow drop-shadow-2xl\",children:\"PowerLine Monitor\"})}),/*#__PURE__*/_jsx(\"div\",{className:\"w-24 h-1 bg-gradient-to-r from-vivid-sky-blue via-non-photo-blue to-light-cyan mx-auto rounded-full\"})]}),/*#__PURE__*/_jsx(\"p\",{className:\"text-gray-200 text-lg font-medium mb-6 max-w-3xl mx-auto\",children:\"Advanced real-time monitoring powered by IoT sensors and artificial intelligence\"}),/*#__PURE__*/_jsx(\"div\",{className:\"border-t border-white/30 pt-6\",children:/*#__PURE__*/_jsxs(\"div\",{className:\"flex flex-col md:flex-row justify-between items-center space-y-4 md:space-y-0\",children:[/*#__PURE__*/_jsxs(\"div\",{className:\"text-white\",children:[/*#__PURE__*/_jsx(\"p\",{className:\"text-lg font-bold\",children:\"Made by Team NEON NEXUS\"}),/*#__PURE__*/_jsx(\"p\",{className:\"text-gray-300 text-sm mt-1\",children:\"Delivering intelligent infrastructure solutions\"})]}),/*#__PURE__*/_jsxs(\"div\",{className:\"text-white text-right\",children:[/*#__PURE__*/_jsx(\"p\",{className:\"font-semibold\",children:\"\\xA9 2025 All rights reserved.\"}),/*#__PURE__*/_jsx(\"p\",{className:\"text-gray-300 text-sm mt-1\",children:\"Powered by AI & IoT Technology\"})]})]})})]})})})]});};export default Dashboard;","map":{"version":3,"names":["React","useState","useEffect","PowerLineAnimation","VoltageChart","CurrentChart","FaultPredictionChart","MapComponent","AlertSystem","AIPredictions","ErrorBoundary","FaBolt","FaPlug","FaChartBar","FaSyncAlt","FaChartLine","jsx","_jsx","jsxs","_jsxs","Fragment","_Fragment","Dashboard","sensorData","setSensorData","poles","setPoles","loading","setLoading","fetchSensorData","generateMockData","fetchPolesData","latestReading","length","getDynamicStatus","baseStatus","poleId","hasLineBreak","current","hasVoltageFault","voltage","hasVibrationFault","vibration","faultPoles","includes","hasMinorCurrent","hasMinorVoltage","hasMinorVibration","warningPoles","mockPoles","id","lat","lng","status","name","err","console","error","mockData","now","Date","i","timestamp","getTime","unshift","Math","random","interval","setInterval","clearInterval","className","children","toFixed","concat","toLocaleTimeString","fallbackMessage","data","slice"],"sources":["C:/Users/Asus/OneDrive/Desktop/react/src/components/Dashboard.js"],"sourcesContent":["import React, { useState, useEffect } from 'react';\r\nimport PowerLineAnimation from './PowerLineAnimation';\r\nimport { VoltageChart, CurrentChart, FaultPredictionChart } from './Charts';\r\nimport MapComponent from './MapComponent';\r\nimport { AlertSystem, AIPredictions } from './AlertsAndPredictions';\r\nimport ErrorBoundary from './ErrorBoundary';\r\nimport { \r\n  FaBolt, \r\n  FaPlug, \r\n  FaChartBar, \r\n  FaSyncAlt,\r\n  FaChartLine\r\n} from 'react-icons/fa';\r\n\r\nconst Dashboard = () => {\r\n  const [sensorData, setSensorData] = useState([]);\r\n  const [poles, setPoles] = useState([]);\r\n  const [loading, setLoading] = useState(true);\r\n\r\n  // Generate mock data since we're operating in demonstration mode\r\n  const fetchSensorData = () => {\r\n    generateMockData();\r\n  };\r\n\r\n  // Fetch poles data (mock for now, can be replaced with actual API)\r\n  const fetchPolesData = async () => {\r\n    try {\r\n      // For now, we'll use mock data. Replace with actual API call when available\r\n      // const response = await axios.get('http://localhost:4000/api/poles');\r\n      // setPoles(response.data);\r\n      \r\n      // Mock poles data with comprehensive Kerala coverage - 110 poles across all districts\r\n      // Status is now dynamic based on sensor data conditions\r\n      const latestReading = sensorData.length > 0 ? sensorData[sensorData.length - 1] : null;\r\n      \r\n      // Determine status based on sensor data - only 1-2 poles show fault during line break\r\n      const getDynamicStatus = (baseStatus, poleId) => {\r\n        if (!latestReading) return baseStatus;\r\n        \r\n        // Check for critical line break condition (high current indicates line break)\r\n        const hasLineBreak = latestReading.current > 15;\r\n        const hasVoltageFault = latestReading.voltage < 210 || latestReading.voltage > 245;\r\n        const hasVibrationFault = latestReading.vibration > 0.8;\r\n        \r\n        // Only specific poles show fault during line break (simulate actual line break location)\r\n        const faultPoles = [3, 16]; // Only Nemom and Kollam City show fault during line break\r\n        \r\n        // Critical fault conditions (red markers)\r\n        if (hasLineBreak || hasVoltageFault || hasVibrationFault) {\r\n          // Only designated poles show fault (red)\r\n          if (faultPoles.includes(poleId)) {\r\n            return 'fault';\r\n          }\r\n        }\r\n        \r\n        // Warning conditions - only 1-2 poles show yellow for minor issues\r\n        const hasMinorCurrent = latestReading.current > 12 && latestReading.current <= 15;\r\n        const hasMinorVoltage = (latestReading.voltage < 220 || latestReading.voltage > 240) && \r\n                                (latestReading.voltage >= 210 && latestReading.voltage <= 245);\r\n        const hasMinorVibration = latestReading.vibration > 0.5 && latestReading.vibration <= 0.8;\r\n        \r\n        if (hasMinorCurrent || hasMinorVoltage || hasMinorVibration) {\r\n          // Only 2 specific poles show warning (yellow) for minor issues\r\n          const warningPoles = [17, 59]; // Only Paravur and Ernakulam show warning\r\n          if (warningPoles.includes(poleId)) {\r\n            return 'warning';\r\n          }\r\n        }\r\n        \r\n        return 'clear';\r\n      };\r\n      \r\n      const mockPoles = [\r\n        // Thiruvananthapuram District (15 poles)\r\n        { id: 1, lat: 8.5244, lng: 76.9366, status: getDynamicStatus('clear', 1), name: 'TVM Central' },\r\n        { id: 2, lat: 8.3405, lng: 76.8723, status: getDynamicStatus('clear', 2), name: 'Neyyattinkara' },\r\n        { id: 3, lat: 8.4847, lng: 76.9489, status: getDynamicStatus('clear', 3), name: 'Nemom' },\r\n        { id: 4, lat: 8.5066, lng: 76.9572, status: getDynamicStatus('clear', 4), name: 'Pettah' },\r\n        { id: 5, lat: 8.5101, lng: 76.9543, status: getDynamicStatus('clear', 5), name: 'Palayam' },\r\n        { id: 6, lat: 8.4324, lng: 76.9799, status: getDynamicStatus('clear', 6), name: 'Vellayani' },\r\n        { id: 7, lat: 8.6764, lng: 76.8102, status: getDynamicStatus('clear', 7), name: 'Attingal' },\r\n        { id: 8, lat: 8.7389, lng: 76.7164, status: getDynamicStatus('clear', 8), name: 'Varkala' },\r\n        { id: 9, lat: 8.2563, lng: 77.0864, status: getDynamicStatus('clear', 9), name: 'Parassala' },\r\n        { id: 10, lat: 8.1677, lng: 77.0733, status: getDynamicStatus('clear', 10), name: 'Kanyakumari Border' },\r\n        { id: 11, lat: 8.3540, lng: 76.8935, status: getDynamicStatus('clear', 11), name: 'Balaramapuram' },\r\n        { id: 12, lat: 8.3879, lng: 76.9799, status: getDynamicStatus('clear', 12), name: 'Vizhinjam' },\r\n        { id: 13, lat: 8.5661, lng: 76.8832, status: getDynamicStatus('clear', 13), name: 'Kazhakoottam' },\r\n        { id: 14, lat: 8.3616, lng: 77.0643, status: getDynamicStatus('clear', 14), name: 'Poovar' },\r\n        { id: 15, lat: 8.4008, lng: 76.9789, status: getDynamicStatus('clear', 15), name: 'Kovalam' },\r\n        \r\n        // Kollam District (10 poles)\r\n        { id: 16, lat: 8.8932, lng: 76.6141, status: getDynamicStatus('clear', 16), name: 'Kollam City' },\r\n        { id: 17, lat: 8.9673, lng: 76.6451, status: getDynamicStatus('clear', 17), name: 'Paravur' },\r\n        { id: 18, lat: 8.7794, lng: 76.6892, status: getDynamicStatus('clear', 18), name: 'Punalur' },\r\n        { id: 19, lat: 8.8547, lng: 76.6178, status: getDynamicStatus('clear', 19), name: 'Chavara' },\r\n        { id: 20, lat: 8.9157, lng: 76.6342, status: getDynamicStatus('clear', 20), name: 'Anchal' },\r\n        { id: 21, lat: 8.8863, lng: 76.6217, status: getDynamicStatus('clear', 21), name: 'Kottarakkara' },\r\n        { id: 22, lat: 8.9401, lng: 76.6432, status: getDynamicStatus('clear', 22), name: 'Karunagappally' },\r\n        { id: 23, lat: 8.7531, lng: 76.6894, status: getDynamicStatus('clear', 23), name: 'Pathanapuram' },\r\n        { id: 24, lat: 8.8254, lng: 76.6313, status: getDynamicStatus('clear', 24), name: 'Ochira' },\r\n        { id: 25, lat: 8.9298, lng: 76.6547, status: getDynamicStatus('clear', 25), name: 'Sasthamcotta' },\r\n        \r\n        // Pathanamthitta District (8 poles)\r\n        { id: 26, lat: 9.2648, lng: 76.7873, status: 'clear', name: 'Pathanamthitta' },\r\n        { id: 27, lat: 9.3442, lng: 76.8174, status: 'clear', name: 'Thiruvalla' },\r\n        { id: 28, lat: 9.2181, lng: 76.7367, status: 'clear', name: 'Adoor' },\r\n        { id: 29, lat: 9.3894, lng: 76.8201, status: 'clear', name: 'Chengannur' },\r\n        { id: 30, lat: 9.2897, lng: 76.6782, status: 'clear', name: 'Pandalam' },\r\n        { id: 31, lat: 9.4369, lng: 76.8844, status: 'clear', name: 'Aranmula' },\r\n        { id: 32, lat: 9.1567, lng: 76.7234, status: 'clear', name: 'Konni' },\r\n        { id: 33, lat: 9.2234, lng: 76.8567, status: 'clear', name: 'Mallappally' },\r\n        \r\n        // Alappuzha District (9 poles)\r\n        { id: 34, lat: 9.4981, lng: 76.3388, status: 'clear', name: 'Alappuzha' },\r\n        { id: 35, lat: 9.5916, lng: 76.5222, status: 'clear', name: 'Cherthala' },\r\n        { id: 36, lat: 9.4459, lng: 76.4072, status: 'clear', name: 'Haripad' },\r\n        { id: 37, lat: 9.3847, lng: 76.4471, status: 'clear', name: 'Kayamkulam' },\r\n        { id: 38, lat: 9.4971, lng: 76.3411, status: 'clear', name: 'Ambalappuzha' },\r\n        { id: 39, lat: 9.4931, lng: 76.4534, status: 'clear', name: 'Kuttanad' },\r\n        { id: 40, lat: 9.5182, lng: 76.4254, status: 'clear', name: 'Mararikulam' },\r\n        { id: 41, lat: 9.6234, lng: 76.5432, status: 'clear', name: 'Aroor' },\r\n        { id: 42, lat: 9.4123, lng: 76.3987, status: 'clear', name: 'Mavelikara' },\r\n        \r\n        // Kottayam District (8 poles)\r\n        { id: 43, lat: 9.5916, lng: 76.5222, status: 'clear', name: 'Kottayam' },\r\n        { id: 44, lat: 9.6205, lng: 76.6132, status: 'clear', name: 'Changanassery' },\r\n        { id: 45, lat: 9.6847, lng: 76.7351, status: 'clear', name: 'Pala' },\r\n        { id: 46, lat: 9.5234, lng: 76.4987, status: 'clear', name: 'Ettumanoor' },\r\n        { id: 47, lat: 9.7456, lng: 76.6234, status: 'clear', name: 'Mundakayam' },\r\n        { id: 48, lat: 9.5678, lng: 76.5891, status: 'clear', name: 'Vaikom' },\r\n        { id: 49, lat: 9.6789, lng: 76.5432, status: 'clear', name: 'Kumarakom' },\r\n        { id: 50, lat: 9.6543, lng: 76.6789, status: 'clear', name: 'Erattupetta' },\r\n        \r\n        // Idukki District (7 poles)\r\n        { id: 51, lat: 9.8501, lng: 76.9723, status: 'clear', name: 'Idukki Dam' },\r\n        { id: 52, lat: 10.0889, lng: 76.5157, status: 'clear', name: 'Munnar' },\r\n        { id: 53, lat: 9.9234, lng: 76.8567, status: 'clear', name: 'Thodupuzha' },\r\n        { id: 54, lat: 9.7654, lng: 76.7891, status: 'warning', name: 'Kumily' },\r\n        { id: 55, lat: 9.8765, lng: 76.6543, status: 'clear', name: 'Peermade' },\r\n        { id: 56, lat: 9.9876, lng: 76.7234, status: 'clear', name: 'Adimali' },\r\n        { id: 57, lat: 9.8123, lng: 76.9012, status: 'clear', name: 'Nedumkandam' },\r\n        \r\n        // Ernakulam District (12 poles)\r\n        { id: 58, lat: 9.9312, lng: 76.2673, status: 'clear', name: 'Kochi Central' },\r\n        { id: 59, lat: 9.9816, lng: 76.2835, status: 'warning', name: 'Ernakulam' },\r\n        { id: 60, lat: 10.0421, lng: 76.2708, status: 'clear', name: 'Vypin' },\r\n        { id: 61, lat: 9.9647, lng: 76.2376, status: 'clear', name: 'Fort Kochi' },\r\n        { id: 62, lat: 9.9589, lng: 76.2932, status: 'clear', name: 'Marine Drive' },\r\n        { id: 63, lat: 10.0621, lng: 76.3456, status: 'clear', name: 'Aluva' },\r\n        { id: 64, lat: 9.8234, lng: 76.3987, status: 'clear', name: 'Tripunithura' },\r\n        { id: 65, lat: 10.1234, lng: 76.4567, status: 'clear', name: 'Perumbavoor' },\r\n        { id: 66, lat: 9.8765, lng: 76.5432, status: 'clear', name: 'Kothamangalam' },\r\n        { id: 67, lat: 10.0987, lng: 76.2945, status: 'clear', name: 'Kalamassery' },\r\n        { id: 68, lat: 9.9123, lng: 76.4789, status: 'clear', name: 'Muvattupuzha' },\r\n        { id: 69, lat: 10.1567, lng: 76.3421, status: 'clear', name: 'Angamaly' },\r\n        \r\n        // Thrissur District (10 poles)\r\n        { id: 70, lat: 10.5276, lng: 76.2144, status: 'clear', name: 'Thrissur City' },\r\n        { id: 71, lat: 10.4234, lng: 76.1567, status: 'clear', name: 'Guruvayur' },\r\n        { id: 72, lat: 10.5678, lng: 76.3456, status: 'clear', name: 'Irinjalakuda' },\r\n        { id: 73, lat: 10.6789, lng: 76.2789, status: 'clear', name: 'Kodungallur' },\r\n        { id: 74, lat: 10.4987, lng: 76.4321, status: 'clear', name: 'Chalakudy' },\r\n        { id: 75, lat: 10.3456, lng: 76.2134, status: 'clear', name: 'Kunnamkulam' },\r\n        { id: 76, lat: 10.6234, lng: 76.2476, status: 'clear', name: 'Chavakkad' },\r\n        { id: 77, lat: 10.5432, lng: 76.3789, status: 'clear', name: 'Wadakkanchery' },\r\n        { id: 78, lat: 10.4567, lng: 76.3234, status: 'clear', name: 'Ollur' },\r\n        { id: 79, lat: 10.3789, lng: 76.2567, status: 'clear', name: 'Taliparamba Junction' },\r\n        \r\n        // Palakkad District (8 poles)\r\n        { id: 80, lat: 10.7867, lng: 76.6548, status: 'clear', name: 'Palakkad' },\r\n        { id: 81, lat: 10.8234, lng: 76.7891, status: 'clear', name: 'Ottappalam' },\r\n        { id: 82, lat: 10.6789, lng: 76.5432, status: 'clear', name: 'Chittur' },\r\n        { id: 83, lat: 10.9123, lng: 76.6789, status: 'clear', name: 'Shornur' },\r\n        { id: 84, lat: 10.7456, lng: 76.8234, status: 'clear', name: 'Mannarkkad' },\r\n        { id: 85, lat: 10.6543, lng: 76.7654, status: 'clear', name: 'Alathur' },\r\n        { id: 86, lat: 10.8765, lng: 76.5987, status: 'clear', name: 'Pattambi' },\r\n        { id: 87, lat: 10.5987, lng: 76.6234, status: 'clear', name: 'Cherpulassery' },\r\n        \r\n        // Malappuram District (9 poles)\r\n        { id: 88, lat: 11.0748, lng: 76.0781, status: 'clear', name: 'Malappuram' },\r\n        { id: 89, lat: 11.2234, lng: 75.9876, status: 'clear', name: 'Manjeri' },\r\n        { id: 90, lat: 11.1234, lng: 76.1567, status: 'clear', name: 'Perinthalmanna' },\r\n        { id: 91, lat: 11.0567, lng: 76.2345, status: 'clear', name: 'Tirur' },\r\n        { id: 92, lat: 10.9876, lng: 76.1789, status: 'clear', name: 'Kottakkal' },\r\n        { id: 93, lat: 11.1567, lng: 75.8234, status: 'clear', name: 'Nilambur' },\r\n        { id: 94, lat: 11.3456, lng: 76.0987, status: 'warning', name: 'Kondotty' },\r\n        { id: 95, lat: 11.0234, lng: 75.9567, status: 'clear', name: 'Wandoor' },\r\n        { id: 96, lat: 11.2789, lng: 76.0432, status: 'clear', name: 'Areekode' },\r\n        \r\n        // Kozhikode District (8 poles)\r\n        { id: 97, lat: 11.2588, lng: 75.7804, status: 'clear', name: 'Kozhikode City' },\r\n        { id: 98, lat: 11.4234, lng: 75.8567, status: 'clear', name: 'Vadakara' },\r\n        { id: 99, lat: 11.1789, lng: 75.7934, status: 'clear', name: 'Beypore' },\r\n        { id: 100, lat: 11.3567, lng: 75.7891, status: 'clear', name: 'Koyilandy' },\r\n        { id: 101, lat: 11.0987, lng: 75.8432, status: 'clear', name: 'Feroke' },\r\n        { id: 102, lat: 11.2345, lng: 75.7489, status: 'clear', name: 'Ramanattukara' },\r\n        { id: 103, lat: 11.4567, lng: 75.7543, status: 'clear', name: 'Thalassery Road' },\r\n        { id: 104, lat: 11.1876, lng: 75.9123, status: 'clear', name: 'Mukkam' },\r\n        \r\n        // Wayanad District (4 poles)\r\n        { id: 105, lat: 11.6051, lng: 76.0821, status: 'clear', name: 'Kalpetta' },\r\n        { id: 106, lat: 11.7234, lng: 76.1567, status: 'clear', name: 'Sulthan Bathery' },\r\n        { id: 107, lat: 11.5789, lng: 76.2345, status: 'clear', name: 'Mananthavady' },\r\n        { id: 108, lat: 11.6567, lng: 76.0987, status: 'clear', name: 'Vythiri' },\r\n        \r\n        // Kannur District (6 poles)\r\n        { id: 109, lat: 11.8745, lng: 75.3704, status: 'clear', name: 'Kannur City' },\r\n        { id: 110, lat: 12.0234, lng: 75.2567, status: 'clear', name: 'Thalassery' }\r\n      ];\r\n      setPoles(mockPoles);\r\n    } catch (err) {\r\n      console.error('Error fetching poles data:', err);\r\n    }\r\n  };\r\n\r\n  // Generate mock data if backend is not available\r\n  const generateMockData = () => {\r\n    const mockData = [];\r\n    const now = new Date();\r\n    \r\n    for (let i = 0; i < 20; i++) {\r\n      const timestamp = new Date(now.getTime() - (i * 300000)); // Every 5 minutes\r\n      mockData.unshift({\r\n        id: i + 1,\r\n        voltage: 230 + (Math.random() - 0.5) * 20, // 220-240V range\r\n        current: 10 + Math.random() * 8, // 10-18A range\r\n        vibration: Math.random() * 0.6, // 0-0.6g range\r\n        timestamp: timestamp\r\n      });\r\n    }\r\n    setSensorData(mockData);\r\n  };\r\n\r\n  useEffect(() => {\r\n    fetchSensorData();\r\n    const interval = setInterval(fetchSensorData, 30000); // Fetch every 30 seconds\r\n    setLoading(false);\r\n    \r\n    return () => clearInterval(interval);\r\n  }, []);\r\n\r\n  useEffect(() => {\r\n    fetchPolesData();\r\n  }, [sensorData]);\r\n\r\n  const latestReading = sensorData.length > 0 ? sensorData[sensorData.length - 1] : null;\r\n\r\n  if (loading) {\r\n    return (\r\n      <div className=\"min-h-screen bg-main-gradient flex items-center justify-center\">\r\n        <div className=\"text-center\">\r\n          <div className=\"animate-spin rounded-full h-32 w-32 border-b-2 border-emerald-green mb-4\"></div>\r\n          <p className=\"text-white text-xl\">Loading Dashboard...</p>\r\n        </div>\r\n      </div>\r\n    );\r\n  }\r\n\r\n  return (\r\n    <div className=\"min-h-screen bg-main-gradient p-4 space-y-6\">\r\n      {/* Header */}\r\n      <header className=\"text-center py-8 md:py-12 relative overflow-hidden bg-black/20 backdrop-blur-sm rounded-2xl mb-6 transition-all duration-500 hover:bg-black/25 hover:shadow-[0_0_30px_rgba(59,130,246,0.2)] fade-in-section\">\r\n        <div className=\"absolute inset-0 bg-gradient-to-br from-blue-900/50 via-blue-800/30 to-blue-700/20 rounded-2xl\"></div>\r\n        <div className=\"relative z-10\">\r\n          <h1 className=\"text-4xl md:text-5xl font-black mb-6 tracking-tight\">\r\n            <span className=\"text-white drop-shadow-[0_0_20px_rgba(59,130,246,0.8)] filter brightness-125\">\r\n              PowerLine Monitor\r\n            </span>\r\n          </h1>\r\n          <div className=\"w-24 h-1.5 bg-gradient-to-r from-blue-400 via-cyan-400 to-blue-400 mx-auto mb-6 rounded-full shadow-[0_0_20px_rgba(59,130,246,0.6)]\"></div>\r\n          <p className=\"text-lg font-semibold max-w-4xl mx-auto leading-relaxed\">\r\n            <span className=\"text-white text-xl drop-shadow-lg\">Driving Safer, Sustainable, and Smarter Power Line Management</span>\r\n          </p>\r\n        </div>\r\n      </header>\r\n\r\n      {/* Hero Section with Split Layout */}\r\n      <section className=\"mb-12 fade-in-section\">\r\n        <div className=\"container mx-auto\">\r\n          <div className=\"grid grid-cols-1 lg:grid-cols-2 gap-8 items-stretch\">\r\n            {/* Left Half - Power Line Monitoring Text */}\r\n            <div className=\"bg-black/30 backdrop-blur-xl rounded-3xl p-6 border-2 border-blue-500/50 shadow-[0_0_30px_rgba(59,130,246,0.3)] h-full flex flex-col transition-all duration-500 hover:bg-black/35 hover:border-blue-400/60 hover:shadow-[0_0_40px_rgba(59,130,246,0.4)] professional-card enhanced-backdrop-blur\">\r\n              <div className=\"bg-gradient-to-br from-blue-900/60 via-blue-800/40 to-blue-700/30 rounded-2xl p-6 border border-blue-400/30 transition-all duration-300 hover:border-blue-300/40 h-full flex flex-col\">\r\n                <h1 className=\"text-2xl md:text-3xl font-black mb-6 leading-tight tracking-tight\">\r\n                  <span className=\"text-white drop-shadow-[0_0_15px_rgba(59,130,246,0.8)] filter brightness-110\">\r\n                    PowerLine Monitor\r\n                  </span>\r\n                </h1>\r\n                <div className=\"w-20 h-1.5 bg-gradient-to-r from-blue-400 via-cyan-400 to-blue-400 mb-6 rounded-full shadow-[0_0_15px_rgba(59,130,246,0.6)] lg:mx-0\"></div>\r\n                \r\n                <div className=\"flex-1 space-y-8 text-white overflow-y-auto\">\r\n                  <div>\r\n                    <p className=\"text-base md:text-lg leading-relaxed text-white font-medium\">\r\n                      Our solution offers a cutting-edge IoT-powered system for real-time monitoring and intelligent fault detection of Low Tension (LT) power lines. Using a network of sensorsincluding current, voltage, vibration, and tilt detectorsit continuously monitors the condition of electrical lines to detect faults caused by accidents, wear, or weather.\r\n                    </p>\r\n                  </div>\r\n                  \r\n                  <div>\r\n                    <p className=\"text-base md:text-lg leading-relaxed text-white font-medium\">\r\n                      The collected data is securely transmitted via MQTT/HTTP protocols to a cloud-based backend, where advanced algorithms analyze it for any signs of malfunction.\r\n                    </p>\r\n                  </div>\r\n                  \r\n                  <div>\r\n                    <p className=\"text-base md:text-lg leading-relaxed text-white font-medium\">\r\n                      When a fault is detected, the system automatically isolates the affected section by activating a relay, reducing power outages and preventing further damage. At the same time, instant alerts are sent to utility providers, enabling rapid and efficient maintenance.\r\n                    </p>\r\n                  </div>\r\n                  \r\n                  <div>\r\n                    <p className=\"text-base md:text-lg leading-relaxed text-white font-medium\">\r\n                      Our platform uses advanced AI and Machine Learning to predict potential faults by analyzing real-time and historical sensor data. This enables early detection of anomalies, allowing utility providers to take preventive action before failures occur. By turning reactive maintenance into proactive management, we enhance grid reliability, reduce downtime, and improve overall system efficiency.\r\n                    </p>\r\n                  </div>\r\n                  \r\n                  <div>\r\n                    <h3 className=\"text-lg md:text-xl font-bold text-white mb-3 flex items-center gap-2\">\r\n                      <FaBolt className=\"text-yellow-400 drop-shadow-[0_0_10px_rgba(251,191,36,0.6)]\" /> \r\n                      <span className=\"text-white drop-shadow-[0_0_10px_rgba(72,202,228,0.5)]\">Why Choose Us?</span>\r\n                    </h3>\r\n                    <p className=\"text-base md:text-lg leading-relaxed text-white font-medium\">\r\n                      Empower your energy management with smart monitoring, automated fault resolution, and faster service response  making your power infrastructure safer, more reliable, and future-ready.\r\n                    </p>\r\n                  </div>\r\n                </div>\r\n              </div>\r\n            </div>\r\n            \r\n            {/* Right Half - Current Flow Visualization */}\r\n            <div className=\"space-y-6 h-full flex flex-col\">\r\n              <div className=\"text-center mb-4\">\r\n                <h2 className=\"text-2xl font-bold text-white drop-shadow-[0_0_15px_rgba(59,130,246,0.8)] filter brightness-110 mb-6\">\r\n                  Current Flow Visualization\r\n                </h2>\r\n              </div>\r\n              \r\n              <div className=\"flex-1 flex items-center justify-center\">\r\n                <PowerLineAnimation status={latestReading?.current > 15 ? 'fault' : latestReading?.voltage < 220 || latestReading?.voltage > 240 ? 'warning' : 'normal'} />\r\n              </div>\r\n              \r\n              {/* Current Status Section */}\r\n              <div className=\"bg-black/30 backdrop-blur-xl rounded-2xl p-6 border-2 border-blue-500/50 shadow-[0_0_30px_rgba(59,130,246,0.3)] transition-all duration-500 hover:bg-black/35 hover:shadow-[0_0_40px_rgba(59,130,246,0.4)]\">\r\n                <h3 className=\"text-xl font-bold text-white mb-4 text-center drop-shadow-[0_0_10px_rgba(59,130,246,0.8)]\">\r\n                  Current Status\r\n                </h3>\r\n                \r\n                {latestReading ? (\r\n                  <div className=\"space-y-4\">\r\n                    {/* Real-time Metrics */}\r\n                    <div className=\"grid grid-cols-1 sm:grid-cols-3 gap-6\">\r\n                      <div className=\"glass-morphism glass-morphism-hover card-hover rounded-xl p-6 text-center glow-border pulse-glow-enhanced professional-card\">\r\n                        <div className=\"text-3xl mb-2 float text-yellow-400\"><FaBolt /></div>\r\n                        <div className=\"text-xs text-white mb-2 font-bold text-glow\">Voltage</div>\r\n                        <div className=\"text-2xl font-bold text-white mb-2\">\r\n                          {latestReading.voltage.toFixed(1)}V\r\n                        </div>\r\n                        <div className={`text-sm font-bold px-3 py-1 rounded-full glow-border ${\r\n                          latestReading.voltage >= 220 && latestReading.voltage <= 240 \r\n                            ? 'text-green-300 bg-green-500/20' : 'text-yellow-300 bg-yellow-500/20'\r\n                        }`}>\r\n                          {latestReading.voltage >= 220 && latestReading.voltage <= 240 ? 'Normal' : 'Warning'}\r\n                        </div>\r\n                      </div>\r\n                      \r\n                      <div className=\"glass-morphism glass-morphism-hover card-hover rounded-xl p-6 text-center glow-border pulse-glow-enhanced professional-card\">\r\n                        <div className=\"text-3xl mb-2 float text-blue-400\"><FaPlug /></div>\r\n                        <div className=\"text-xs text-white mb-2 font-bold text-glow\">Current</div>\r\n                        <div className=\"text-2xl font-bold text-white mb-2\">\r\n                          {latestReading.current.toFixed(1)}A\r\n                        </div>\r\n                        <div className={`text-sm font-bold px-3 py-1 rounded-full glow-border ${\r\n                          latestReading.current <= 15 ? 'text-green-300 bg-green-500/20' : 'text-red-300 bg-red-500/20'\r\n                        }`}>\r\n                          {latestReading.current <= 15 ? 'Normal' : 'High'}\r\n                        </div>\r\n                      </div>\r\n                      \r\n                      <div className=\"glass-morphism glass-morphism-hover card-hover rounded-xl p-6 text-center glow-border pulse-glow-enhanced professional-card\">\r\n                        <div className=\"text-3xl mb-2 float text-green-400\"><FaChartBar /></div>\r\n                        <div className=\"text-xs text-white mb-2 font-bold text-glow\">Vibration</div>\r\n                        <div className=\"text-2xl font-bold text-white mb-2\">\r\n                          {latestReading.vibration.toFixed(2)}g\r\n                        </div>\r\n                        <div className={`text-sm font-bold px-3 py-1 rounded-full glow-border ${\r\n                          latestReading.vibration <= 0.8 ? 'text-green-300 bg-green-500/20' : 'text-red-300 bg-red-500/20'\r\n                        }`}>\r\n                          {latestReading.vibration <= 0.8 ? 'Normal' : 'High'}\r\n                        </div>\r\n                      </div>\r\n                    </div>\r\n                    \r\n                    {/* System Health Indicators */}\r\n                    <div className=\"border-t border-white/30 pt-4\">\r\n                      <div className=\"flex justify-between items-center mb-4\">\r\n                        <span className=\"text-white font-bold text-base\">System Health</span>\r\n                        <span className={`px-4 py-2 rounded-full text-sm font-bold border-2 ${\r\n                          (latestReading.voltage >= 220 && latestReading.voltage <= 240 && \r\n                           latestReading.current <= 15 && latestReading.vibration <= 0.8)\r\n                            ? 'bg-green-100 text-green-800 border-green-300' \r\n                            : (latestReading.current > 15 || latestReading.vibration > 0.8)\r\n                            ? 'bg-red-100 text-red-800 border-red-300'\r\n                            : 'bg-yellow-100 text-yellow-800 border-yellow-300'\r\n                        }`}>\r\n                          {(latestReading.voltage >= 220 && latestReading.voltage <= 240 && \r\n                           latestReading.current <= 15 && latestReading.vibration <= 0.8)\r\n                            ? 'OPTIMAL' \r\n                            : (latestReading.current > 15 || latestReading.vibration > 0.8)\r\n                            ? 'CRITICAL'\r\n                            : 'WARNING'}\r\n                        </span>\r\n                      </div>\r\n                      \r\n                      <div className=\"space-y-3\">\r\n                        <div className=\"flex justify-between text-base\">\r\n                          <span className=\"text-gray-300 font-semibold\">Power Quality:</span>\r\n                          <span className=\"text-white font-bold\">Stable</span>\r\n                        </div>\r\n                        <div className=\"flex justify-between text-base\">\r\n                          <span className=\"text-gray-300 font-semibold\">Load Balance:</span>\r\n                          <span className=\"text-white font-bold\">\r\n                            {((latestReading.current / 20) * 100).toFixed(0)}%\r\n                          </span>\r\n                        </div>\r\n                        <div className=\"flex justify-between text-base\">\r\n                          <span className=\"text-gray-300 font-semibold\">Last Update:</span>\r\n                          <span className=\"text-white font-bold\">\r\n                            {new Date(latestReading.timestamp).toLocaleTimeString()}\r\n                          </span>\r\n                        </div>\r\n                      </div>\r\n                    </div>\r\n                  </div>\r\n                ) : (\r\n                  <div className=\"text-center py-8\">\r\n                    <div className=\"text-non-photo-blue mb-2 text-lg font-semibold\">No sensor data available</div>\r\n                    <div className=\"text-sm text-vivid-sky-blue/70\">Waiting for connection...</div>\r\n                  </div>\r\n                )}\r\n              </div>\r\n            </div>\r\n          </div>\r\n        </div>\r\n      </section>\r\n\r\n      {/* Power line Map Section */}\r\n      <section id=\"powerline-map\" className=\"mb-10 relative z-10\">\r\n        <div className=\"container mx-auto px-4\">\r\n          <div className=\"text-center mb-6\">\r\n            <h2 className=\"text-2xl font-bold mb-4\">\r\n              <span className=\"text-white text-glow drop-shadow-2xl\">\r\n                Power line Map\r\n              </span>\r\n            </h2>\r\n            <div className=\"w-20 h-1 bg-gradient-to-r from-vivid-sky-blue via-non-photo-blue to-light-cyan mx-auto rounded-full\"></div>\r\n            <p className=\"text-gray-200 mt-4 text-lg font-bold max-w-2xl mx-auto\">\r\n              Real-time monitoring of distributed power infrastructure with intelligent status tracking\r\n            </p>\r\n          </div>\r\n          <div className=\"w-full max-w-6xl mx-auto bg-black/20 backdrop-blur-xl rounded-2xl p-6 border border-blue-500/30 shadow-[0_0_30px_rgba(59,130,246,0.2)]\">\r\n            <ErrorBoundary fallbackMessage=\"Failed to load power line map\">\r\n              <MapComponent poles={poles} />\r\n            </ErrorBoundary>\r\n          </div>\r\n        </div>\r\n      </section>\r\n\r\n      {/* Charts Section */}\r\n      <section id=\"performance-analytics\" className=\"mb-10\">\r\n        <div className=\"text-center mb-6\">\r\n          <h2 className=\"text-2xl font-bold mb-4\">\r\n            <span className=\"text-white text-glow drop-shadow-2xl\">\r\n              Performance Analytics\r\n            </span>\r\n          </h2>\r\n          <div className=\"w-20 h-1 bg-gradient-to-r from-vivid-sky-blue via-non-photo-blue to-light-cyan mx-auto rounded-full\"></div>\r\n          <p className=\"text-lg text-gray-200 font-bold max-w-3xl mx-auto mt-4\">\r\n            Real-time data visualization and trend analysis for comprehensive power line monitoring\r\n          </p>\r\n        </div>\r\n        <div className=\"grid grid-cols-1 lg:grid-cols-3 gap-8\">\r\n          {sensorData.length > 0 ? (\r\n            <>\r\n              <ErrorBoundary fallbackMessage=\"Failed to load voltage chart\">\r\n                <VoltageChart data={sensorData.slice(-10)} />\r\n              </ErrorBoundary>\r\n              <ErrorBoundary fallbackMessage=\"Failed to load current chart\">\r\n                <CurrentChart data={sensorData.slice(-10)} />\r\n              </ErrorBoundary>\r\n              <ErrorBoundary fallbackMessage=\"Failed to load prediction chart\">\r\n                <FaultPredictionChart data={sensorData.slice(-10)} />\r\n              </ErrorBoundary>\r\n            </>\r\n          ) : (\r\n            <div className=\"col-span-full text-center py-12\">\r\n              <div className=\"text-gray-400 text-lg mb-2\">No data available for analysis</div>\r\n              <div className=\"text-gray-500\">Charts will appear once sensor data is received</div>\r\n            </div>\r\n          )}\r\n        </div>\r\n      </section>\r\n\r\n      {/* Alerts and Predictions Section */}\r\n      <section id=\"intelligent-monitoring\" className=\"mb-10\">\r\n        <div className=\"text-center mb-8\">\r\n          <h2 className=\"text-2xl font-bold mb-4\">\r\n            <span className=\"text-white text-glow drop-shadow-2xl\">\r\n              Intelligent Monitoring System\r\n            </span>\r\n          </h2>\r\n          <div className=\"w-24 h-1 bg-gradient-to-r from-vivid-sky-blue via-non-photo-blue to-light-cyan mx-auto mb-4 rounded-full\"></div>\r\n          <p className=\"text-lg text-gray-200 font-bold max-w-3xl mx-auto leading-relaxed\">\r\n            Advanced AI-powered alert system with predictive analytics for proactive maintenance and fault prevention\r\n          </p>\r\n        </div>\r\n        \r\n        <div className=\"grid grid-cols-1 lg:grid-cols-2 gap-8\">\r\n          {/* Left: Alerts */}\r\n          <div className=\"min-h-[600px]\">\r\n            <ErrorBoundary fallbackMessage=\"Failed to load system alerts\">\r\n              <AlertSystem sensorData={sensorData} />\r\n            </ErrorBoundary>\r\n          </div>\r\n          \r\n          {/* Right: AI Predictions */}\r\n          <div className=\"min-h-[600px]\">\r\n            <ErrorBoundary fallbackMessage=\"Failed to load AI predictions\">\r\n              <AIPredictions sensorData={sensorData} />\r\n            </ErrorBoundary>\r\n          </div>\r\n        </div>\r\n      </section>\r\n\r\n      {/* Status Summary */}\r\n      <section className=\"mb-10\">\r\n        <div className=\"glass-morphism glass-morphism-hover rounded-3xl p-8 backdrop-blur-md glow-border shadow-glow text-center\">\r\n          <h2 className=\"text-2xl font-bold text-white mb-6\">\r\n            <span className=\"text-white text-glow drop-shadow-2xl\">\r\n              System Status Overview\r\n            </span>\r\n          </h2>\r\n          <div className=\"w-24 h-1 bg-gradient-to-r from-vivid-sky-blue via-non-photo-blue to-light-cyan mx-auto mb-6 rounded-full\"></div>\r\n          \r\n          <div className=\"grid grid-cols-1 sm:grid-cols-2 lg:grid-cols-4 gap-6\">\r\n            <div className=\"glass-morphism glass-morphism-hover card-hover rounded-2xl p-4 glow-border shadow-glow\">\r\n              <div className=\"text-3xl mb-2 float text-blue-400\"><FaChartBar /></div>\r\n              <h3 className=\"text-white font-bold text-base mb-2\">Total Sensors</h3>\r\n              <p className=\"text-2xl font-bold text-white mb-2\">{poles.length}</p>\r\n              <p className=\"text-gray-300 text-sm font-medium\">Active monitoring</p>\r\n            </div>\r\n            <div className=\"glass-morphism glass-morphism-hover card-hover rounded-2xl p-4 glow-border shadow-glow\">\r\n              <div className=\"text-3xl mb-2 float text-yellow-400\"><FaBolt /></div>\r\n              <h3 className=\"text-white font-bold text-base mb-2\">Active Poles</h3>\r\n              <p className=\"text-2xl font-bold text-white mb-2\">{poles.length}</p>\r\n              <p className=\"text-gray-300 text-sm font-medium\">Operational units</p>\r\n            </div>\r\n            <div className=\"glass-morphism glass-morphism-hover card-hover rounded-2xl p-4 glow-border shadow-glow\">\r\n              <div className=\"text-3xl mb-2 float text-green-400\"><FaChartLine /></div>\r\n              <h3 className=\"text-white font-bold text-base mb-2\">Data Points</h3>\r\n              <p className=\"text-2xl font-bold text-white mb-2\">{sensorData.length}</p>\r\n              <p className=\"text-gray-300 text-sm font-medium\">Collected metrics</p>\r\n            </div>\r\n            <div className=\"glass-morphism glass-morphism-hover card-hover rounded-2xl p-4 glow-border shadow-glow\">\r\n              <div className=\"text-3xl mb-2 float text-blue-400\"><FaSyncAlt /></div>\r\n              <h3 className=\"text-white font-bold text-base mb-2\">Last Update</h3>\r\n              <p className=\"text-base font-bold text-white mb-2\">\r\n                {latestReading ? new Date(latestReading.timestamp).toLocaleTimeString() : 'N/A'}\r\n              </p>\r\n              <p className=\"text-gray-300 text-sm font-medium\">System sync</p>\r\n            </div>\r\n          </div>\r\n        </div>\r\n      </section>\r\n\r\n      {/* Footer */}\r\n      <footer className=\"w-screen relative left-1/2 right-1/2 -ml-[50vw] -mr-[50vw] mt-16\">\r\n        <div className=\"bg-gradient-to-r from-federal-blue via-marian-blue to-honolulu-blue py-12 px-8\">\r\n          <div className=\"max-w-6xl mx-auto text-center\">\r\n            <div className=\"mb-6\">\r\n              <h3 className=\"text-2xl font-bold text-white mb-4 text-center\">\r\n                <span className=\"text-white text-glow drop-shadow-2xl\">\r\n                  PowerLine Monitor\r\n                </span>\r\n              </h3>\r\n              <div className=\"w-24 h-1 bg-gradient-to-r from-vivid-sky-blue via-non-photo-blue to-light-cyan mx-auto rounded-full\"></div>\r\n            </div>\r\n            <p className=\"text-gray-200 text-lg font-medium mb-6 max-w-3xl mx-auto\">\r\n              Advanced real-time monitoring powered by IoT sensors and artificial intelligence\r\n            </p>\r\n            <div className=\"border-t border-white/30 pt-6\">\r\n              <div className=\"flex flex-col md:flex-row justify-between items-center space-y-4 md:space-y-0\">\r\n                <div className=\"text-white\">\r\n                  <p className=\"text-lg font-bold\">Made by Team NEON NEXUS</p>\r\n                  <p className=\"text-gray-300 text-sm mt-1\">Delivering intelligent infrastructure solutions</p>\r\n                </div>\r\n                <div className=\"text-white text-right\">\r\n                  <p className=\"font-semibold\">&copy; 2025 All rights reserved.</p>\r\n                  <p className=\"text-gray-300 text-sm mt-1\">Powered by AI & IoT Technology</p>\r\n                </div>\r\n              </div>\r\n            </div>\r\n          </div>\r\n        </div>\r\n      </footer>\r\n    </div>\r\n  );\r\n};\r\n\r\nexport default Dashboard;\r\n"],"mappings":"AAAA,MAAO,CAAAA,KAAK,EAAIC,QAAQ,CAAEC,SAAS,KAAQ,OAAO,CAClD,MAAO,CAAAC,kBAAkB,KAAM,sBAAsB,CACrD,OAASC,YAAY,CAAEC,YAAY,CAAEC,oBAAoB,KAAQ,UAAU,CAC3E,MAAO,CAAAC,YAAY,KAAM,gBAAgB,CACzC,OAASC,WAAW,CAAEC,aAAa,KAAQ,wBAAwB,CACnE,MAAO,CAAAC,aAAa,KAAM,iBAAiB,CAC3C,OACEC,MAAM,CACNC,MAAM,CACNC,UAAU,CACVC,SAAS,CACTC,WAAW,KACN,gBAAgB,CAAC,OAAAC,GAAA,IAAAC,IAAA,CAAAC,IAAA,IAAAC,KAAA,CAAAC,QAAA,IAAAC,SAAA,yBAExB,KAAM,CAAAC,SAAS,CAAGA,CAAA,GAAM,CACtB,KAAM,CAACC,UAAU,CAAEC,aAAa,CAAC,CAAGvB,QAAQ,CAAC,EAAE,CAAC,CAChD,KAAM,CAACwB,KAAK,CAAEC,QAAQ,CAAC,CAAGzB,QAAQ,CAAC,EAAE,CAAC,CACtC,KAAM,CAAC0B,OAAO,CAAEC,UAAU,CAAC,CAAG3B,QAAQ,CAAC,IAAI,CAAC,CAE5C;AACA,KAAM,CAAA4B,eAAe,CAAGA,CAAA,GAAM,CAC5BC,gBAAgB,CAAC,CAAC,CACpB,CAAC,CAED;AACA,KAAM,CAAAC,cAAc,CAAG,KAAAA,CAAA,GAAY,CACjC,GAAI,CACF;AACA;AACA;AAEA;AACA;AACA,KAAM,CAAAC,aAAa,CAAGT,UAAU,CAACU,MAAM,CAAG,CAAC,CAAGV,UAAU,CAACA,UAAU,CAACU,MAAM,CAAG,CAAC,CAAC,CAAG,IAAI,CAEtF;AACA,KAAM,CAAAC,gBAAgB,CAAGA,CAACC,UAAU,CAAEC,MAAM,GAAK,CAC/C,GAAI,CAACJ,aAAa,CAAE,MAAO,CAAAG,UAAU,CAErC;AACA,KAAM,CAAAE,YAAY,CAAGL,aAAa,CAACM,OAAO,CAAG,EAAE,CAC/C,KAAM,CAAAC,eAAe,CAAGP,aAAa,CAACQ,OAAO,CAAG,GAAG,EAAIR,aAAa,CAACQ,OAAO,CAAG,GAAG,CAClF,KAAM,CAAAC,iBAAiB,CAAGT,aAAa,CAACU,SAAS,CAAG,GAAG,CAEvD;AACA,KAAM,CAAAC,UAAU,CAAG,CAAC,CAAC,CAAE,EAAE,CAAC,CAAE;AAE5B;AACA,GAAIN,YAAY,EAAIE,eAAe,EAAIE,iBAAiB,CAAE,CACxD;AACA,GAAIE,UAAU,CAACC,QAAQ,CAACR,MAAM,CAAC,CAAE,CAC/B,MAAO,OAAO,CAChB,CACF,CAEA;AACA,KAAM,CAAAS,eAAe,CAAGb,aAAa,CAACM,OAAO,CAAG,EAAE,EAAIN,aAAa,CAACM,OAAO,EAAI,EAAE,CACjF,KAAM,CAAAQ,eAAe,CAAG,CAACd,aAAa,CAACQ,OAAO,CAAG,GAAG,EAAIR,aAAa,CAACQ,OAAO,CAAG,GAAG,GAC1DR,aAAa,CAACQ,OAAO,EAAI,GAAG,EAAIR,aAAa,CAACQ,OAAO,EAAI,GAAI,CACtF,KAAM,CAAAO,iBAAiB,CAAGf,aAAa,CAACU,SAAS,CAAG,GAAG,EAAIV,aAAa,CAACU,SAAS,EAAI,GAAG,CAEzF,GAAIG,eAAe,EAAIC,eAAe,EAAIC,iBAAiB,CAAE,CAC3D;AACA,KAAM,CAAAC,YAAY,CAAG,CAAC,EAAE,CAAE,EAAE,CAAC,CAAE;AAC/B,GAAIA,YAAY,CAACJ,QAAQ,CAACR,MAAM,CAAC,CAAE,CACjC,MAAO,SAAS,CAClB,CACF,CAEA,MAAO,OAAO,CAChB,CAAC,CAED,KAAM,CAAAa,SAAS,CAAG,CAChB;AACA,CAAEC,EAAE,CAAE,CAAC,CAAEC,GAAG,CAAE,MAAM,CAAEC,GAAG,CAAE,OAAO,CAAEC,MAAM,CAAEnB,gBAAgB,CAAC,OAAO,CAAE,CAAC,CAAC,CAAEoB,IAAI,CAAE,aAAc,CAAC,CAC/F,CAAEJ,EAAE,CAAE,CAAC,CAAEC,GAAG,CAAE,MAAM,CAAEC,GAAG,CAAE,OAAO,CAAEC,MAAM,CAAEnB,gBAAgB,CAAC,OAAO,CAAE,CAAC,CAAC,CAAEoB,IAAI,CAAE,eAAgB,CAAC,CACjG,CAAEJ,EAAE,CAAE,CAAC,CAAEC,GAAG,CAAE,MAAM,CAAEC,GAAG,CAAE,OAAO,CAAEC,MAAM,CAAEnB,gBAAgB,CAAC,OAAO,CAAE,CAAC,CAAC,CAAEoB,IAAI,CAAE,OAAQ,CAAC,CACzF,CAAEJ,EAAE,CAAE,CAAC,CAAEC,GAAG,CAAE,MAAM,CAAEC,GAAG,CAAE,OAAO,CAAEC,MAAM,CAAEnB,gBAAgB,CAAC,OAAO,CAAE,CAAC,CAAC,CAAEoB,IAAI,CAAE,QAAS,CAAC,CAC1F,CAAEJ,EAAE,CAAE,CAAC,CAAEC,GAAG,CAAE,MAAM,CAAEC,GAAG,CAAE,OAAO,CAAEC,MAAM,CAAEnB,gBAAgB,CAAC,OAAO,CAAE,CAAC,CAAC,CAAEoB,IAAI,CAAE,SAAU,CAAC,CAC3F,CAAEJ,EAAE,CAAE,CAAC,CAAEC,GAAG,CAAE,MAAM,CAAEC,GAAG,CAAE,OAAO,CAAEC,MAAM,CAAEnB,gBAAgB,CAAC,OAAO,CAAE,CAAC,CAAC,CAAEoB,IAAI,CAAE,WAAY,CAAC,CAC7F,CAAEJ,EAAE,CAAE,CAAC,CAAEC,GAAG,CAAE,MAAM,CAAEC,GAAG,CAAE,OAAO,CAAEC,MAAM,CAAEnB,gBAAgB,CAAC,OAAO,CAAE,CAAC,CAAC,CAAEoB,IAAI,CAAE,UAAW,CAAC,CAC5F,CAAEJ,EAAE,CAAE,CAAC,CAAEC,GAAG,CAAE,MAAM,CAAEC,GAAG,CAAE,OAAO,CAAEC,MAAM,CAAEnB,gBAAgB,CAAC,OAAO,CAAE,CAAC,CAAC,CAAEoB,IAAI,CAAE,SAAU,CAAC,CAC3F,CAAEJ,EAAE,CAAE,CAAC,CAAEC,GAAG,CAAE,MAAM,CAAEC,GAAG,CAAE,OAAO,CAAEC,MAAM,CAAEnB,gBAAgB,CAAC,OAAO,CAAE,CAAC,CAAC,CAAEoB,IAAI,CAAE,WAAY,CAAC,CAC7F,CAAEJ,EAAE,CAAE,EAAE,CAAEC,GAAG,CAAE,MAAM,CAAEC,GAAG,CAAE,OAAO,CAAEC,MAAM,CAAEnB,gBAAgB,CAAC,OAAO,CAAE,EAAE,CAAC,CAAEoB,IAAI,CAAE,oBAAqB,CAAC,CACxG,CAAEJ,EAAE,CAAE,EAAE,CAAEC,GAAG,CAAE,MAAM,CAAEC,GAAG,CAAE,OAAO,CAAEC,MAAM,CAAEnB,gBAAgB,CAAC,OAAO,CAAE,EAAE,CAAC,CAAEoB,IAAI,CAAE,eAAgB,CAAC,CACnG,CAAEJ,EAAE,CAAE,EAAE,CAAEC,GAAG,CAAE,MAAM,CAAEC,GAAG,CAAE,OAAO,CAAEC,MAAM,CAAEnB,gBAAgB,CAAC,OAAO,CAAE,EAAE,CAAC,CAAEoB,IAAI,CAAE,WAAY,CAAC,CAC/F,CAAEJ,EAAE,CAAE,EAAE,CAAEC,GAAG,CAAE,MAAM,CAAEC,GAAG,CAAE,OAAO,CAAEC,MAAM,CAAEnB,gBAAgB,CAAC,OAAO,CAAE,EAAE,CAAC,CAAEoB,IAAI,CAAE,cAAe,CAAC,CAClG,CAAEJ,EAAE,CAAE,EAAE,CAAEC,GAAG,CAAE,MAAM,CAAEC,GAAG,CAAE,OAAO,CAAEC,MAAM,CAAEnB,gBAAgB,CAAC,OAAO,CAAE,EAAE,CAAC,CAAEoB,IAAI,CAAE,QAAS,CAAC,CAC5F,CAAEJ,EAAE,CAAE,EAAE,CAAEC,GAAG,CAAE,MAAM,CAAEC,GAAG,CAAE,OAAO,CAAEC,MAAM,CAAEnB,gBAAgB,CAAC,OAAO,CAAE,EAAE,CAAC,CAAEoB,IAAI,CAAE,SAAU,CAAC,CAE7F;AACA,CAAEJ,EAAE,CAAE,EAAE,CAAEC,GAAG,CAAE,MAAM,CAAEC,GAAG,CAAE,OAAO,CAAEC,MAAM,CAAEnB,gBAAgB,CAAC,OAAO,CAAE,EAAE,CAAC,CAAEoB,IAAI,CAAE,aAAc,CAAC,CACjG,CAAEJ,EAAE,CAAE,EAAE,CAAEC,GAAG,CAAE,MAAM,CAAEC,GAAG,CAAE,OAAO,CAAEC,MAAM,CAAEnB,gBAAgB,CAAC,OAAO,CAAE,EAAE,CAAC,CAAEoB,IAAI,CAAE,SAAU,CAAC,CAC7F,CAAEJ,EAAE,CAAE,EAAE,CAAEC,GAAG,CAAE,MAAM,CAAEC,GAAG,CAAE,OAAO,CAAEC,MAAM,CAAEnB,gBAAgB,CAAC,OAAO,CAAE,EAAE,CAAC,CAAEoB,IAAI,CAAE,SAAU,CAAC,CAC7F,CAAEJ,EAAE,CAAE,EAAE,CAAEC,GAAG,CAAE,MAAM,CAAEC,GAAG,CAAE,OAAO,CAAEC,MAAM,CAAEnB,gBAAgB,CAAC,OAAO,CAAE,EAAE,CAAC,CAAEoB,IAAI,CAAE,SAAU,CAAC,CAC7F,CAAEJ,EAAE,CAAE,EAAE,CAAEC,GAAG,CAAE,MAAM,CAAEC,GAAG,CAAE,OAAO,CAAEC,MAAM,CAAEnB,gBAAgB,CAAC,OAAO,CAAE,EAAE,CAAC,CAAEoB,IAAI,CAAE,QAAS,CAAC,CAC5F,CAAEJ,EAAE,CAAE,EAAE,CAAEC,GAAG,CAAE,MAAM,CAAEC,GAAG,CAAE,OAAO,CAAEC,MAAM,CAAEnB,gBAAgB,CAAC,OAAO,CAAE,EAAE,CAAC,CAAEoB,IAAI,CAAE,cAAe,CAAC,CAClG,CAAEJ,EAAE,CAAE,EAAE,CAAEC,GAAG,CAAE,MAAM,CAAEC,GAAG,CAAE,OAAO,CAAEC,MAAM,CAAEnB,gBAAgB,CAAC,OAAO,CAAE,EAAE,CAAC,CAAEoB,IAAI,CAAE,gBAAiB,CAAC,CACpG,CAAEJ,EAAE,CAAE,EAAE,CAAEC,GAAG,CAAE,MAAM,CAAEC,GAAG,CAAE,OAAO,CAAEC,MAAM,CAAEnB,gBAAgB,CAAC,OAAO,CAAE,EAAE,CAAC,CAAEoB,IAAI,CAAE,cAAe,CAAC,CAClG,CAAEJ,EAAE,CAAE,EAAE,CAAEC,GAAG,CAAE,MAAM,CAAEC,GAAG,CAAE,OAAO,CAAEC,MAAM,CAAEnB,gBAAgB,CAAC,OAAO,CAAE,EAAE,CAAC,CAAEoB,IAAI,CAAE,QAAS,CAAC,CAC5F,CAAEJ,EAAE,CAAE,EAAE,CAAEC,GAAG,CAAE,MAAM,CAAEC,GAAG,CAAE,OAAO,CAAEC,MAAM,CAAEnB,gBAAgB,CAAC,OAAO,CAAE,EAAE,CAAC,CAAEoB,IAAI,CAAE,cAAe,CAAC,CAElG;AACA,CAAEJ,EAAE,CAAE,EAAE,CAAEC,GAAG,CAAE,MAAM,CAAEC,GAAG,CAAE,OAAO,CAAEC,MAAM,CAAE,OAAO,CAAEC,IAAI,CAAE,gBAAiB,CAAC,CAC9E,CAAEJ,EAAE,CAAE,EAAE,CAAEC,GAAG,CAAE,MAAM,CAAEC,GAAG,CAAE,OAAO,CAAEC,MAAM,CAAE,OAAO,CAAEC,IAAI,CAAE,YAAa,CAAC,CAC1E,CAAEJ,EAAE,CAAE,EAAE,CAAEC,GAAG,CAAE,MAAM,CAAEC,GAAG,CAAE,OAAO,CAAEC,MAAM,CAAE,OAAO,CAAEC,IAAI,CAAE,OAAQ,CAAC,CACrE,CAAEJ,EAAE,CAAE,EAAE,CAAEC,GAAG,CAAE,MAAM,CAAEC,GAAG,CAAE,OAAO,CAAEC,MAAM,CAAE,OAAO,CAAEC,IAAI,CAAE,YAAa,CAAC,CAC1E,CAAEJ,EAAE,CAAE,EAAE,CAAEC,GAAG,CAAE,MAAM,CAAEC,GAAG,CAAE,OAAO,CAAEC,MAAM,CAAE,OAAO,CAAEC,IAAI,CAAE,UAAW,CAAC,CACxE,CAAEJ,EAAE,CAAE,EAAE,CAAEC,GAAG,CAAE,MAAM,CAAEC,GAAG,CAAE,OAAO,CAAEC,MAAM,CAAE,OAAO,CAAEC,IAAI,CAAE,UAAW,CAAC,CACxE,CAAEJ,EAAE,CAAE,EAAE,CAAEC,GAAG,CAAE,MAAM,CAAEC,GAAG,CAAE,OAAO,CAAEC,MAAM,CAAE,OAAO,CAAEC,IAAI,CAAE,OAAQ,CAAC,CACrE,CAAEJ,EAAE,CAAE,EAAE,CAAEC,GAAG,CAAE,MAAM,CAAEC,GAAG,CAAE,OAAO,CAAEC,MAAM,CAAE,OAAO,CAAEC,IAAI,CAAE,aAAc,CAAC,CAE3E;AACA,CAAEJ,EAAE,CAAE,EAAE,CAAEC,GAAG,CAAE,MAAM,CAAEC,GAAG,CAAE,OAAO,CAAEC,MAAM,CAAE,OAAO,CAAEC,IAAI,CAAE,WAAY,CAAC,CACzE,CAAEJ,EAAE,CAAE,EAAE,CAAEC,GAAG,CAAE,MAAM,CAAEC,GAAG,CAAE,OAAO,CAAEC,MAAM,CAAE,OAAO,CAAEC,IAAI,CAAE,WAAY,CAAC,CACzE,CAAEJ,EAAE,CAAE,EAAE,CAAEC,GAAG,CAAE,MAAM,CAAEC,GAAG,CAAE,OAAO,CAAEC,MAAM,CAAE,OAAO,CAAEC,IAAI,CAAE,SAAU,CAAC,CACvE,CAAEJ,EAAE,CAAE,EAAE,CAAEC,GAAG,CAAE,MAAM,CAAEC,GAAG,CAAE,OAAO,CAAEC,MAAM,CAAE,OAAO,CAAEC,IAAI,CAAE,YAAa,CAAC,CAC1E,CAAEJ,EAAE,CAAE,EAAE,CAAEC,GAAG,CAAE,MAAM,CAAEC,GAAG,CAAE,OAAO,CAAEC,MAAM,CAAE,OAAO,CAAEC,IAAI,CAAE,cAAe,CAAC,CAC5E,CAAEJ,EAAE,CAAE,EAAE,CAAEC,GAAG,CAAE,MAAM,CAAEC,GAAG,CAAE,OAAO,CAAEC,MAAM,CAAE,OAAO,CAAEC,IAAI,CAAE,UAAW,CAAC,CACxE,CAAEJ,EAAE,CAAE,EAAE,CAAEC,GAAG,CAAE,MAAM,CAAEC,GAAG,CAAE,OAAO,CAAEC,MAAM,CAAE,OAAO,CAAEC,IAAI,CAAE,aAAc,CAAC,CAC3E,CAAEJ,EAAE,CAAE,EAAE,CAAEC,GAAG,CAAE,MAAM,CAAEC,GAAG,CAAE,OAAO,CAAEC,MAAM,CAAE,OAAO,CAAEC,IAAI,CAAE,OAAQ,CAAC,CACrE,CAAEJ,EAAE,CAAE,EAAE,CAAEC,GAAG,CAAE,MAAM,CAAEC,GAAG,CAAE,OAAO,CAAEC,MAAM,CAAE,OAAO,CAAEC,IAAI,CAAE,YAAa,CAAC,CAE1E;AACA,CAAEJ,EAAE,CAAE,EAAE,CAAEC,GAAG,CAAE,MAAM,CAAEC,GAAG,CAAE,OAAO,CAAEC,MAAM,CAAE,OAAO,CAAEC,IAAI,CAAE,UAAW,CAAC,CACxE,CAAEJ,EAAE,CAAE,EAAE,CAAEC,GAAG,CAAE,MAAM,CAAEC,GAAG,CAAE,OAAO,CAAEC,MAAM,CAAE,OAAO,CAAEC,IAAI,CAAE,eAAgB,CAAC,CAC7E,CAAEJ,EAAE,CAAE,EAAE,CAAEC,GAAG,CAAE,MAAM,CAAEC,GAAG,CAAE,OAAO,CAAEC,MAAM,CAAE,OAAO,CAAEC,IAAI,CAAE,MAAO,CAAC,CACpE,CAAEJ,EAAE,CAAE,EAAE,CAAEC,GAAG,CAAE,MAAM,CAAEC,GAAG,CAAE,OAAO,CAAEC,MAAM,CAAE,OAAO,CAAEC,IAAI,CAAE,YAAa,CAAC,CAC1E,CAAEJ,EAAE,CAAE,EAAE,CAAEC,GAAG,CAAE,MAAM,CAAEC,GAAG,CAAE,OAAO,CAAEC,MAAM,CAAE,OAAO,CAAEC,IAAI,CAAE,YAAa,CAAC,CAC1E,CAAEJ,EAAE,CAAE,EAAE,CAAEC,GAAG,CAAE,MAAM,CAAEC,GAAG,CAAE,OAAO,CAAEC,MAAM,CAAE,OAAO,CAAEC,IAAI,CAAE,QAAS,CAAC,CACtE,CAAEJ,EAAE,CAAE,EAAE,CAAEC,GAAG,CAAE,MAAM,CAAEC,GAAG,CAAE,OAAO,CAAEC,MAAM,CAAE,OAAO,CAAEC,IAAI,CAAE,WAAY,CAAC,CACzE,CAAEJ,EAAE,CAAE,EAAE,CAAEC,GAAG,CAAE,MAAM,CAAEC,GAAG,CAAE,OAAO,CAAEC,MAAM,CAAE,OAAO,CAAEC,IAAI,CAAE,aAAc,CAAC,CAE3E;AACA,CAAEJ,EAAE,CAAE,EAAE,CAAEC,GAAG,CAAE,MAAM,CAAEC,GAAG,CAAE,OAAO,CAAEC,MAAM,CAAE,OAAO,CAAEC,IAAI,CAAE,YAAa,CAAC,CAC1E,CAAEJ,EAAE,CAAE,EAAE,CAAEC,GAAG,CAAE,OAAO,CAAEC,GAAG,CAAE,OAAO,CAAEC,MAAM,CAAE,OAAO,CAAEC,IAAI,CAAE,QAAS,CAAC,CACvE,CAAEJ,EAAE,CAAE,EAAE,CAAEC,GAAG,CAAE,MAAM,CAAEC,GAAG,CAAE,OAAO,CAAEC,MAAM,CAAE,OAAO,CAAEC,IAAI,CAAE,YAAa,CAAC,CAC1E,CAAEJ,EAAE,CAAE,EAAE,CAAEC,GAAG,CAAE,MAAM,CAAEC,GAAG,CAAE,OAAO,CAAEC,MAAM,CAAE,SAAS,CAAEC,IAAI,CAAE,QAAS,CAAC,CACxE,CAAEJ,EAAE,CAAE,EAAE,CAAEC,GAAG,CAAE,MAAM,CAAEC,GAAG,CAAE,OAAO,CAAEC,MAAM,CAAE,OAAO,CAAEC,IAAI,CAAE,UAAW,CAAC,CACxE,CAAEJ,EAAE,CAAE,EAAE,CAAEC,GAAG,CAAE,MAAM,CAAEC,GAAG,CAAE,OAAO,CAAEC,MAAM,CAAE,OAAO,CAAEC,IAAI,CAAE,SAAU,CAAC,CACvE,CAAEJ,EAAE,CAAE,EAAE,CAAEC,GAAG,CAAE,MAAM,CAAEC,GAAG,CAAE,OAAO,CAAEC,MAAM,CAAE,OAAO,CAAEC,IAAI,CAAE,aAAc,CAAC,CAE3E;AACA,CAAEJ,EAAE,CAAE,EAAE,CAAEC,GAAG,CAAE,MAAM,CAAEC,GAAG,CAAE,OAAO,CAAEC,MAAM,CAAE,OAAO,CAAEC,IAAI,CAAE,eAAgB,CAAC,CAC7E,CAAEJ,EAAE,CAAE,EAAE,CAAEC,GAAG,CAAE,MAAM,CAAEC,GAAG,CAAE,OAAO,CAAEC,MAAM,CAAE,SAAS,CAAEC,IAAI,CAAE,WAAY,CAAC,CAC3E,CAAEJ,EAAE,CAAE,EAAE,CAAEC,GAAG,CAAE,OAAO,CAAEC,GAAG,CAAE,OAAO,CAAEC,MAAM,CAAE,OAAO,CAAEC,IAAI,CAAE,OAAQ,CAAC,CACtE,CAAEJ,EAAE,CAAE,EAAE,CAAEC,GAAG,CAAE,MAAM,CAAEC,GAAG,CAAE,OAAO,CAAEC,MAAM,CAAE,OAAO,CAAEC,IAAI,CAAE,YAAa,CAAC,CAC1E,CAAEJ,EAAE,CAAE,EAAE,CAAEC,GAAG,CAAE,MAAM,CAAEC,GAAG,CAAE,OAAO,CAAEC,MAAM,CAAE,OAAO,CAAEC,IAAI,CAAE,cAAe,CAAC,CAC5E,CAAEJ,EAAE,CAAE,EAAE,CAAEC,GAAG,CAAE,OAAO,CAAEC,GAAG,CAAE,OAAO,CAAEC,MAAM,CAAE,OAAO,CAAEC,IAAI,CAAE,OAAQ,CAAC,CACtE,CAAEJ,EAAE,CAAE,EAAE,CAAEC,GAAG,CAAE,MAAM,CAAEC,GAAG,CAAE,OAAO,CAAEC,MAAM,CAAE,OAAO,CAAEC,IAAI,CAAE,cAAe,CAAC,CAC5E,CAAEJ,EAAE,CAAE,EAAE,CAAEC,GAAG,CAAE,OAAO,CAAEC,GAAG,CAAE,OAAO,CAAEC,MAAM,CAAE,OAAO,CAAEC,IAAI,CAAE,aAAc,CAAC,CAC5E,CAAEJ,EAAE,CAAE,EAAE,CAAEC,GAAG,CAAE,MAAM,CAAEC,GAAG,CAAE,OAAO,CAAEC,MAAM,CAAE,OAAO,CAAEC,IAAI,CAAE,eAAgB,CAAC,CAC7E,CAAEJ,EAAE,CAAE,EAAE,CAAEC,GAAG,CAAE,OAAO,CAAEC,GAAG,CAAE,OAAO,CAAEC,MAAM,CAAE,OAAO,CAAEC,IAAI,CAAE,aAAc,CAAC,CAC5E,CAAEJ,EAAE,CAAE,EAAE,CAAEC,GAAG,CAAE,MAAM,CAAEC,GAAG,CAAE,OAAO,CAAEC,MAAM,CAAE,OAAO,CAAEC,IAAI,CAAE,cAAe,CAAC,CAC5E,CAAEJ,EAAE,CAAE,EAAE,CAAEC,GAAG,CAAE,OAAO,CAAEC,GAAG,CAAE,OAAO,CAAEC,MAAM,CAAE,OAAO,CAAEC,IAAI,CAAE,UAAW,CAAC,CAEzE;AACA,CAAEJ,EAAE,CAAE,EAAE,CAAEC,GAAG,CAAE,OAAO,CAAEC,GAAG,CAAE,OAAO,CAAEC,MAAM,CAAE,OAAO,CAAEC,IAAI,CAAE,eAAgB,CAAC,CAC9E,CAAEJ,EAAE,CAAE,EAAE,CAAEC,GAAG,CAAE,OAAO,CAAEC,GAAG,CAAE,OAAO,CAAEC,MAAM,CAAE,OAAO,CAAEC,IAAI,CAAE,WAAY,CAAC,CAC1E,CAAEJ,EAAE,CAAE,EAAE,CAAEC,GAAG,CAAE,OAAO,CAAEC,GAAG,CAAE,OAAO,CAAEC,MAAM,CAAE,OAAO,CAAEC,IAAI,CAAE,cAAe,CAAC,CAC7E,CAAEJ,EAAE,CAAE,EAAE,CAAEC,GAAG,CAAE,OAAO,CAAEC,GAAG,CAAE,OAAO,CAAEC,MAAM,CAAE,OAAO,CAAEC,IAAI,CAAE,aAAc,CAAC,CAC5E,CAAEJ,EAAE,CAAE,EAAE,CAAEC,GAAG,CAAE,OAAO,CAAEC,GAAG,CAAE,OAAO,CAAEC,MAAM,CAAE,OAAO,CAAEC,IAAI,CAAE,WAAY,CAAC,CAC1E,CAAEJ,EAAE,CAAE,EAAE,CAAEC,GAAG,CAAE,OAAO,CAAEC,GAAG,CAAE,OAAO,CAAEC,MAAM,CAAE,OAAO,CAAEC,IAAI,CAAE,aAAc,CAAC,CAC5E,CAAEJ,EAAE,CAAE,EAAE,CAAEC,GAAG,CAAE,OAAO,CAAEC,GAAG,CAAE,OAAO,CAAEC,MAAM,CAAE,OAAO,CAAEC,IAAI,CAAE,WAAY,CAAC,CAC1E,CAAEJ,EAAE,CAAE,EAAE,CAAEC,GAAG,CAAE,OAAO,CAAEC,GAAG,CAAE,OAAO,CAAEC,MAAM,CAAE,OAAO,CAAEC,IAAI,CAAE,eAAgB,CAAC,CAC9E,CAAEJ,EAAE,CAAE,EAAE,CAAEC,GAAG,CAAE,OAAO,CAAEC,GAAG,CAAE,OAAO,CAAEC,MAAM,CAAE,OAAO,CAAEC,IAAI,CAAE,OAAQ,CAAC,CACtE,CAAEJ,EAAE,CAAE,EAAE,CAAEC,GAAG,CAAE,OAAO,CAAEC,GAAG,CAAE,OAAO,CAAEC,MAAM,CAAE,OAAO,CAAEC,IAAI,CAAE,sBAAuB,CAAC,CAErF;AACA,CAAEJ,EAAE,CAAE,EAAE,CAAEC,GAAG,CAAE,OAAO,CAAEC,GAAG,CAAE,OAAO,CAAEC,MAAM,CAAE,OAAO,CAAEC,IAAI,CAAE,UAAW,CAAC,CACzE,CAAEJ,EAAE,CAAE,EAAE,CAAEC,GAAG,CAAE,OAAO,CAAEC,GAAG,CAAE,OAAO,CAAEC,MAAM,CAAE,OAAO,CAAEC,IAAI,CAAE,YAAa,CAAC,CAC3E,CAAEJ,EAAE,CAAE,EAAE,CAAEC,GAAG,CAAE,OAAO,CAAEC,GAAG,CAAE,OAAO,CAAEC,MAAM,CAAE,OAAO,CAAEC,IAAI,CAAE,SAAU,CAAC,CACxE,CAAEJ,EAAE,CAAE,EAAE,CAAEC,GAAG,CAAE,OAAO,CAAEC,GAAG,CAAE,OAAO,CAAEC,MAAM,CAAE,OAAO,CAAEC,IAAI,CAAE,SAAU,CAAC,CACxE,CAAEJ,EAAE,CAAE,EAAE,CAAEC,GAAG,CAAE,OAAO,CAAEC,GAAG,CAAE,OAAO,CAAEC,MAAM,CAAE,OAAO,CAAEC,IAAI,CAAE,YAAa,CAAC,CAC3E,CAAEJ,EAAE,CAAE,EAAE,CAAEC,GAAG,CAAE,OAAO,CAAEC,GAAG,CAAE,OAAO,CAAEC,MAAM,CAAE,OAAO,CAAEC,IAAI,CAAE,SAAU,CAAC,CACxE,CAAEJ,EAAE,CAAE,EAAE,CAAEC,GAAG,CAAE,OAAO,CAAEC,GAAG,CAAE,OAAO,CAAEC,MAAM,CAAE,OAAO,CAAEC,IAAI,CAAE,UAAW,CAAC,CACzE,CAAEJ,EAAE,CAAE,EAAE,CAAEC,GAAG,CAAE,OAAO,CAAEC,GAAG,CAAE,OAAO,CAAEC,MAAM,CAAE,OAAO,CAAEC,IAAI,CAAE,eAAgB,CAAC,CAE9E;AACA,CAAEJ,EAAE,CAAE,EAAE,CAAEC,GAAG,CAAE,OAAO,CAAEC,GAAG,CAAE,OAAO,CAAEC,MAAM,CAAE,OAAO,CAAEC,IAAI,CAAE,YAAa,CAAC,CAC3E,CAAEJ,EAAE,CAAE,EAAE,CAAEC,GAAG,CAAE,OAAO,CAAEC,GAAG,CAAE,OAAO,CAAEC,MAAM,CAAE,OAAO,CAAEC,IAAI,CAAE,SAAU,CAAC,CACxE,CAAEJ,EAAE,CAAE,EAAE,CAAEC,GAAG,CAAE,OAAO,CAAEC,GAAG,CAAE,OAAO,CAAEC,MAAM,CAAE,OAAO,CAAEC,IAAI,CAAE,gBAAiB,CAAC,CAC/E,CAAEJ,EAAE,CAAE,EAAE,CAAEC,GAAG,CAAE,OAAO,CAAEC,GAAG,CAAE,OAAO,CAAEC,MAAM,CAAE,OAAO,CAAEC,IAAI,CAAE,OAAQ,CAAC,CACtE,CAAEJ,EAAE,CAAE,EAAE,CAAEC,GAAG,CAAE,OAAO,CAAEC,GAAG,CAAE,OAAO,CAAEC,MAAM,CAAE,OAAO,CAAEC,IAAI,CAAE,WAAY,CAAC,CAC1E,CAAEJ,EAAE,CAAE,EAAE,CAAEC,GAAG,CAAE,OAAO,CAAEC,GAAG,CAAE,OAAO,CAAEC,MAAM,CAAE,OAAO,CAAEC,IAAI,CAAE,UAAW,CAAC,CACzE,CAAEJ,EAAE,CAAE,EAAE,CAAEC,GAAG,CAAE,OAAO,CAAEC,GAAG,CAAE,OAAO,CAAEC,MAAM,CAAE,SAAS,CAAEC,IAAI,CAAE,UAAW,CAAC,CAC3E,CAAEJ,EAAE,CAAE,EAAE,CAAEC,GAAG,CAAE,OAAO,CAAEC,GAAG,CAAE,OAAO,CAAEC,MAAM,CAAE,OAAO,CAAEC,IAAI,CAAE,SAAU,CAAC,CACxE,CAAEJ,EAAE,CAAE,EAAE,CAAEC,GAAG,CAAE,OAAO,CAAEC,GAAG,CAAE,OAAO,CAAEC,MAAM,CAAE,OAAO,CAAEC,IAAI,CAAE,UAAW,CAAC,CAEzE;AACA,CAAEJ,EAAE,CAAE,EAAE,CAAEC,GAAG,CAAE,OAAO,CAAEC,GAAG,CAAE,OAAO,CAAEC,MAAM,CAAE,OAAO,CAAEC,IAAI,CAAE,gBAAiB,CAAC,CAC/E,CAAEJ,EAAE,CAAE,EAAE,CAAEC,GAAG,CAAE,OAAO,CAAEC,GAAG,CAAE,OAAO,CAAEC,MAAM,CAAE,OAAO,CAAEC,IAAI,CAAE,UAAW,CAAC,CACzE,CAAEJ,EAAE,CAAE,EAAE,CAAEC,GAAG,CAAE,OAAO,CAAEC,GAAG,CAAE,OAAO,CAAEC,MAAM,CAAE,OAAO,CAAEC,IAAI,CAAE,SAAU,CAAC,CACxE,CAAEJ,EAAE,CAAE,GAAG,CAAEC,GAAG,CAAE,OAAO,CAAEC,GAAG,CAAE,OAAO,CAAEC,MAAM,CAAE,OAAO,CAAEC,IAAI,CAAE,WAAY,CAAC,CAC3E,CAAEJ,EAAE,CAAE,GAAG,CAAEC,GAAG,CAAE,OAAO,CAAEC,GAAG,CAAE,OAAO,CAAEC,MAAM,CAAE,OAAO,CAAEC,IAAI,CAAE,QAAS,CAAC,CACxE,CAAEJ,EAAE,CAAE,GAAG,CAAEC,GAAG,CAAE,OAAO,CAAEC,GAAG,CAAE,OAAO,CAAEC,MAAM,CAAE,OAAO,CAAEC,IAAI,CAAE,eAAgB,CAAC,CAC/E,CAAEJ,EAAE,CAAE,GAAG,CAAEC,GAAG,CAAE,OAAO,CAAEC,GAAG,CAAE,OAAO,CAAEC,MAAM,CAAE,OAAO,CAAEC,IAAI,CAAE,iBAAkB,CAAC,CACjF,CAAEJ,EAAE,CAAE,GAAG,CAAEC,GAAG,CAAE,OAAO,CAAEC,GAAG,CAAE,OAAO,CAAEC,MAAM,CAAE,OAAO,CAAEC,IAAI,CAAE,QAAS,CAAC,CAExE;AACA,CAAEJ,EAAE,CAAE,GAAG,CAAEC,GAAG,CAAE,OAAO,CAAEC,GAAG,CAAE,OAAO,CAAEC,MAAM,CAAE,OAAO,CAAEC,IAAI,CAAE,UAAW,CAAC,CAC1E,CAAEJ,EAAE,CAAE,GAAG,CAAEC,GAAG,CAAE,OAAO,CAAEC,GAAG,CAAE,OAAO,CAAEC,MAAM,CAAE,OAAO,CAAEC,IAAI,CAAE,iBAAkB,CAAC,CACjF,CAAEJ,EAAE,CAAE,GAAG,CAAEC,GAAG,CAAE,OAAO,CAAEC,GAAG,CAAE,OAAO,CAAEC,MAAM,CAAE,OAAO,CAAEC,IAAI,CAAE,cAAe,CAAC,CAC9E,CAAEJ,EAAE,CAAE,GAAG,CAAEC,GAAG,CAAE,OAAO,CAAEC,GAAG,CAAE,OAAO,CAAEC,MAAM,CAAE,OAAO,CAAEC,IAAI,CAAE,SAAU,CAAC,CAEzE;AACA,CAAEJ,EAAE,CAAE,GAAG,CAAEC,GAAG,CAAE,OAAO,CAAEC,GAAG,CAAE,OAAO,CAAEC,MAAM,CAAE,OAAO,CAAEC,IAAI,CAAE,aAAc,CAAC,CAC7E,CAAEJ,EAAE,CAAE,GAAG,CAAEC,GAAG,CAAE,OAAO,CAAEC,GAAG,CAAE,OAAO,CAAEC,MAAM,CAAE,OAAO,CAAEC,IAAI,CAAE,YAAa,CAAC,CAC7E,CACD5B,QAAQ,CAACuB,SAAS,CAAC,CACrB,CAAE,MAAOM,GAAG,CAAE,CACZC,OAAO,CAACC,KAAK,CAAC,4BAA4B,CAAEF,GAAG,CAAC,CAClD,CACF,CAAC,CAED;AACA,KAAM,CAAAzB,gBAAgB,CAAGA,CAAA,GAAM,CAC7B,KAAM,CAAA4B,QAAQ,CAAG,EAAE,CACnB,KAAM,CAAAC,GAAG,CAAG,GAAI,CAAAC,IAAI,CAAC,CAAC,CAEtB,IAAK,GAAI,CAAAC,CAAC,CAAG,CAAC,CAAEA,CAAC,CAAG,EAAE,CAAEA,CAAC,EAAE,CAAE,CAC3B,KAAM,CAAAC,SAAS,CAAG,GAAI,CAAAF,IAAI,CAACD,GAAG,CAACI,OAAO,CAAC,CAAC,CAAIF,CAAC,CAAG,MAAO,CAAC,CAAE;AAC1DH,QAAQ,CAACM,OAAO,CAAC,CACfd,EAAE,CAAEW,CAAC,CAAG,CAAC,CACTrB,OAAO,CAAE,GAAG,CAAG,CAACyB,IAAI,CAACC,MAAM,CAAC,CAAC,CAAG,GAAG,EAAI,EAAE,CAAE;AAC3C5B,OAAO,CAAE,EAAE,CAAG2B,IAAI,CAACC,MAAM,CAAC,CAAC,CAAG,CAAC,CAAE;AACjCxB,SAAS,CAAEuB,IAAI,CAACC,MAAM,CAAC,CAAC,CAAG,GAAG,CAAE;AAChCJ,SAAS,CAAEA,SACb,CAAC,CAAC,CACJ,CACAtC,aAAa,CAACkC,QAAQ,CAAC,CACzB,CAAC,CAEDxD,SAAS,CAAC,IAAM,CACd2B,eAAe,CAAC,CAAC,CACjB,KAAM,CAAAsC,QAAQ,CAAGC,WAAW,CAACvC,eAAe,CAAE,KAAK,CAAC,CAAE;AACtDD,UAAU,CAAC,KAAK,CAAC,CAEjB,MAAO,IAAMyC,aAAa,CAACF,QAAQ,CAAC,CACtC,CAAC,CAAE,EAAE,CAAC,CAENjE,SAAS,CAAC,IAAM,CACd6B,cAAc,CAAC,CAAC,CAClB,CAAC,CAAE,CAACR,UAAU,CAAC,CAAC,CAEhB,KAAM,CAAAS,aAAa,CAAGT,UAAU,CAACU,MAAM,CAAG,CAAC,CAAGV,UAAU,CAACA,UAAU,CAACU,MAAM,CAAG,CAAC,CAAC,CAAG,IAAI,CAEtF,GAAIN,OAAO,CAAE,CACX,mBACEV,IAAA,QAAKqD,SAAS,CAAC,gEAAgE,CAAAC,QAAA,cAC7EpD,KAAA,QAAKmD,SAAS,CAAC,aAAa,CAAAC,QAAA,eAC1BtD,IAAA,QAAKqD,SAAS,CAAC,0EAA0E,CAAM,CAAC,cAChGrD,IAAA,MAAGqD,SAAS,CAAC,oBAAoB,CAAAC,QAAA,CAAC,sBAAoB,CAAG,CAAC,EACvD,CAAC,CACH,CAAC,CAEV,CAEA,mBACEpD,KAAA,QAAKmD,SAAS,CAAC,6CAA6C,CAAAC,QAAA,eAE1DpD,KAAA,WAAQmD,SAAS,CAAC,6MAA6M,CAAAC,QAAA,eAC7NtD,IAAA,QAAKqD,SAAS,CAAC,gGAAgG,CAAM,CAAC,cACtHnD,KAAA,QAAKmD,SAAS,CAAC,eAAe,CAAAC,QAAA,eAC5BtD,IAAA,OAAIqD,SAAS,CAAC,qDAAqD,CAAAC,QAAA,cACjEtD,IAAA,SAAMqD,SAAS,CAAC,8EAA8E,CAAAC,QAAA,CAAC,mBAE/F,CAAM,CAAC,CACL,CAAC,cACLtD,IAAA,QAAKqD,SAAS,CAAC,qIAAqI,CAAM,CAAC,cAC3JrD,IAAA,MAAGqD,SAAS,CAAC,yDAAyD,CAAAC,QAAA,cACpEtD,IAAA,SAAMqD,SAAS,CAAC,mCAAmC,CAAAC,QAAA,CAAC,+DAA6D,CAAM,CAAC,CACvH,CAAC,EACD,CAAC,EACA,CAAC,cAGTtD,IAAA,YAASqD,SAAS,CAAC,uBAAuB,CAAAC,QAAA,cACxCtD,IAAA,QAAKqD,SAAS,CAAC,mBAAmB,CAAAC,QAAA,cAChCpD,KAAA,QAAKmD,SAAS,CAAC,qDAAqD,CAAAC,QAAA,eAElEtD,IAAA,QAAKqD,SAAS,CAAC,mSAAmS,CAAAC,QAAA,cAChTpD,KAAA,QAAKmD,SAAS,CAAC,uLAAuL,CAAAC,QAAA,eACpMtD,IAAA,OAAIqD,SAAS,CAAC,mEAAmE,CAAAC,QAAA,cAC/EtD,IAAA,SAAMqD,SAAS,CAAC,8EAA8E,CAAAC,QAAA,CAAC,mBAE/F,CAAM,CAAC,CACL,CAAC,cACLtD,IAAA,QAAKqD,SAAS,CAAC,qIAAqI,CAAM,CAAC,cAE3JnD,KAAA,QAAKmD,SAAS,CAAC,6CAA6C,CAAAC,QAAA,eAC1DtD,IAAA,QAAAsD,QAAA,cACEtD,IAAA,MAAGqD,SAAS,CAAC,6DAA6D,CAAAC,QAAA,CAAC,mWAE3E,CAAG,CAAC,CACD,CAAC,cAENtD,IAAA,QAAAsD,QAAA,cACEtD,IAAA,MAAGqD,SAAS,CAAC,6DAA6D,CAAAC,QAAA,CAAC,iKAE3E,CAAG,CAAC,CACD,CAAC,cAENtD,IAAA,QAAAsD,QAAA,cACEtD,IAAA,MAAGqD,SAAS,CAAC,6DAA6D,CAAAC,QAAA,CAAC,yQAE3E,CAAG,CAAC,CACD,CAAC,cAENtD,IAAA,QAAAsD,QAAA,cACEtD,IAAA,MAAGqD,SAAS,CAAC,6DAA6D,CAAAC,QAAA,CAAC,0YAE3E,CAAG,CAAC,CACD,CAAC,cAENpD,KAAA,QAAAoD,QAAA,eACEpD,KAAA,OAAImD,SAAS,CAAC,sEAAsE,CAAAC,QAAA,eAClFtD,IAAA,CAACN,MAAM,EAAC2D,SAAS,CAAC,6DAA6D,CAAE,CAAC,cAClFrD,IAAA,SAAMqD,SAAS,CAAC,wDAAwD,CAAAC,QAAA,CAAC,gBAAc,CAAM,CAAC,EAC5F,CAAC,cACLtD,IAAA,MAAGqD,SAAS,CAAC,6DAA6D,CAAAC,QAAA,CAAC,+LAE3E,CAAG,CAAC,EACD,CAAC,EACH,CAAC,EACH,CAAC,CACH,CAAC,cAGNpD,KAAA,QAAKmD,SAAS,CAAC,gCAAgC,CAAAC,QAAA,eAC7CtD,IAAA,QAAKqD,SAAS,CAAC,kBAAkB,CAAAC,QAAA,cAC/BtD,IAAA,OAAIqD,SAAS,CAAC,sGAAsG,CAAAC,QAAA,CAAC,4BAErH,CAAI,CAAC,CACF,CAAC,cAENtD,IAAA,QAAKqD,SAAS,CAAC,yCAAyC,CAAAC,QAAA,cACtDtD,IAAA,CAACd,kBAAkB,EAACkD,MAAM,CAAE,CAAArB,aAAa,SAAbA,aAAa,iBAAbA,aAAa,CAAEM,OAAO,EAAG,EAAE,CAAG,OAAO,CAAG,CAAAN,aAAa,SAAbA,aAAa,iBAAbA,aAAa,CAAEQ,OAAO,EAAG,GAAG,EAAI,CAAAR,aAAa,SAAbA,aAAa,iBAAbA,aAAa,CAAEQ,OAAO,EAAG,GAAG,CAAG,SAAS,CAAG,QAAS,CAAE,CAAC,CACxJ,CAAC,cAGNrB,KAAA,QAAKmD,SAAS,CAAC,4MAA4M,CAAAC,QAAA,eACzNtD,IAAA,OAAIqD,SAAS,CAAC,2FAA2F,CAAAC,QAAA,CAAC,gBAE1G,CAAI,CAAC,CAEJvC,aAAa,cACZb,KAAA,QAAKmD,SAAS,CAAC,WAAW,CAAAC,QAAA,eAExBpD,KAAA,QAAKmD,SAAS,CAAC,uCAAuC,CAAAC,QAAA,eACpDpD,KAAA,QAAKmD,SAAS,CAAC,6HAA6H,CAAAC,QAAA,eAC1ItD,IAAA,QAAKqD,SAAS,CAAC,qCAAqC,CAAAC,QAAA,cAACtD,IAAA,CAACN,MAAM,GAAE,CAAC,CAAK,CAAC,cACrEM,IAAA,QAAKqD,SAAS,CAAC,6CAA6C,CAAAC,QAAA,CAAC,SAAO,CAAK,CAAC,cAC1EpD,KAAA,QAAKmD,SAAS,CAAC,oCAAoC,CAAAC,QAAA,EAChDvC,aAAa,CAACQ,OAAO,CAACgC,OAAO,CAAC,CAAC,CAAC,CAAC,GACpC,EAAK,CAAC,cACNvD,IAAA,QAAKqD,SAAS,yDAAAG,MAAA,CACZzC,aAAa,CAACQ,OAAO,EAAI,GAAG,EAAIR,aAAa,CAACQ,OAAO,EAAI,GAAG,CACxD,gCAAgC,CAAG,kCAAkC,CACxE,CAAA+B,QAAA,CACAvC,aAAa,CAACQ,OAAO,EAAI,GAAG,EAAIR,aAAa,CAACQ,OAAO,EAAI,GAAG,CAAG,QAAQ,CAAG,SAAS,CACjF,CAAC,EACH,CAAC,cAENrB,KAAA,QAAKmD,SAAS,CAAC,6HAA6H,CAAAC,QAAA,eAC1ItD,IAAA,QAAKqD,SAAS,CAAC,mCAAmC,CAAAC,QAAA,cAACtD,IAAA,CAACL,MAAM,GAAE,CAAC,CAAK,CAAC,cACnEK,IAAA,QAAKqD,SAAS,CAAC,6CAA6C,CAAAC,QAAA,CAAC,SAAO,CAAK,CAAC,cAC1EpD,KAAA,QAAKmD,SAAS,CAAC,oCAAoC,CAAAC,QAAA,EAChDvC,aAAa,CAACM,OAAO,CAACkC,OAAO,CAAC,CAAC,CAAC,CAAC,GACpC,EAAK,CAAC,cACNvD,IAAA,QAAKqD,SAAS,yDAAAG,MAAA,CACZzC,aAAa,CAACM,OAAO,EAAI,EAAE,CAAG,gCAAgC,CAAG,4BAA4B,CAC5F,CAAAiC,QAAA,CACAvC,aAAa,CAACM,OAAO,EAAI,EAAE,CAAG,QAAQ,CAAG,MAAM,CAC7C,CAAC,EACH,CAAC,cAENnB,KAAA,QAAKmD,SAAS,CAAC,6HAA6H,CAAAC,QAAA,eAC1ItD,IAAA,QAAKqD,SAAS,CAAC,oCAAoC,CAAAC,QAAA,cAACtD,IAAA,CAACJ,UAAU,GAAE,CAAC,CAAK,CAAC,cACxEI,IAAA,QAAKqD,SAAS,CAAC,6CAA6C,CAAAC,QAAA,CAAC,WAAS,CAAK,CAAC,cAC5EpD,KAAA,QAAKmD,SAAS,CAAC,oCAAoC,CAAAC,QAAA,EAChDvC,aAAa,CAACU,SAAS,CAAC8B,OAAO,CAAC,CAAC,CAAC,CAAC,GACtC,EAAK,CAAC,cACNvD,IAAA,QAAKqD,SAAS,yDAAAG,MAAA,CACZzC,aAAa,CAACU,SAAS,EAAI,GAAG,CAAG,gCAAgC,CAAG,4BAA4B,CAC/F,CAAA6B,QAAA,CACAvC,aAAa,CAACU,SAAS,EAAI,GAAG,CAAG,QAAQ,CAAG,MAAM,CAChD,CAAC,EACH,CAAC,EACH,CAAC,cAGNvB,KAAA,QAAKmD,SAAS,CAAC,+BAA+B,CAAAC,QAAA,eAC5CpD,KAAA,QAAKmD,SAAS,CAAC,wCAAwC,CAAAC,QAAA,eACrDtD,IAAA,SAAMqD,SAAS,CAAC,gCAAgC,CAAAC,QAAA,CAAC,eAAa,CAAM,CAAC,cACrEtD,IAAA,SAAMqD,SAAS,sDAAAG,MAAA,CACZzC,aAAa,CAACQ,OAAO,EAAI,GAAG,EAAIR,aAAa,CAACQ,OAAO,EAAI,GAAG,EAC5DR,aAAa,CAACM,OAAO,EAAI,EAAE,EAAIN,aAAa,CAACU,SAAS,EAAI,GAAG,CAC1D,8CAA8C,CAC7CV,aAAa,CAACM,OAAO,CAAG,EAAE,EAAIN,aAAa,CAACU,SAAS,CAAG,GAAG,CAC5D,wCAAwC,CACxC,iDAAiD,CACpD,CAAA6B,QAAA,CACCvC,aAAa,CAACQ,OAAO,EAAI,GAAG,EAAIR,aAAa,CAACQ,OAAO,EAAI,GAAG,EAC7DR,aAAa,CAACM,OAAO,EAAI,EAAE,EAAIN,aAAa,CAACU,SAAS,EAAI,GAAG,CAC1D,SAAS,CACRV,aAAa,CAACM,OAAO,CAAG,EAAE,EAAIN,aAAa,CAACU,SAAS,CAAG,GAAG,CAC5D,UAAU,CACV,SAAS,CACT,CAAC,EACJ,CAAC,cAENvB,KAAA,QAAKmD,SAAS,CAAC,WAAW,CAAAC,QAAA,eACxBpD,KAAA,QAAKmD,SAAS,CAAC,gCAAgC,CAAAC,QAAA,eAC7CtD,IAAA,SAAMqD,SAAS,CAAC,6BAA6B,CAAAC,QAAA,CAAC,gBAAc,CAAM,CAAC,cACnEtD,IAAA,SAAMqD,SAAS,CAAC,sBAAsB,CAAAC,QAAA,CAAC,QAAM,CAAM,CAAC,EACjD,CAAC,cACNpD,KAAA,QAAKmD,SAAS,CAAC,gCAAgC,CAAAC,QAAA,eAC7CtD,IAAA,SAAMqD,SAAS,CAAC,6BAA6B,CAAAC,QAAA,CAAC,eAAa,CAAM,CAAC,cAClEpD,KAAA,SAAMmD,SAAS,CAAC,sBAAsB,CAAAC,QAAA,EACnC,CAAEvC,aAAa,CAACM,OAAO,CAAG,EAAE,CAAI,GAAG,EAAEkC,OAAO,CAAC,CAAC,CAAC,CAAC,GACnD,EAAM,CAAC,EACJ,CAAC,cACNrD,KAAA,QAAKmD,SAAS,CAAC,gCAAgC,CAAAC,QAAA,eAC7CtD,IAAA,SAAMqD,SAAS,CAAC,6BAA6B,CAAAC,QAAA,CAAC,cAAY,CAAM,CAAC,cACjEtD,IAAA,SAAMqD,SAAS,CAAC,sBAAsB,CAAAC,QAAA,CACnC,GAAI,CAAAX,IAAI,CAAC5B,aAAa,CAAC8B,SAAS,CAAC,CAACY,kBAAkB,CAAC,CAAC,CACnD,CAAC,EACJ,CAAC,EACH,CAAC,EACH,CAAC,EACH,CAAC,cAENvD,KAAA,QAAKmD,SAAS,CAAC,kBAAkB,CAAAC,QAAA,eAC/BtD,IAAA,QAAKqD,SAAS,CAAC,gDAAgD,CAAAC,QAAA,CAAC,0BAAwB,CAAK,CAAC,cAC9FtD,IAAA,QAAKqD,SAAS,CAAC,gCAAgC,CAAAC,QAAA,CAAC,2BAAyB,CAAK,CAAC,EAC5E,CACN,EACE,CAAC,EACH,CAAC,EACH,CAAC,CACH,CAAC,CACC,CAAC,cAGVtD,IAAA,YAASiC,EAAE,CAAC,eAAe,CAACoB,SAAS,CAAC,qBAAqB,CAAAC,QAAA,cACzDpD,KAAA,QAAKmD,SAAS,CAAC,wBAAwB,CAAAC,QAAA,eACrCpD,KAAA,QAAKmD,SAAS,CAAC,kBAAkB,CAAAC,QAAA,eAC/BtD,IAAA,OAAIqD,SAAS,CAAC,yBAAyB,CAAAC,QAAA,cACrCtD,IAAA,SAAMqD,SAAS,CAAC,sCAAsC,CAAAC,QAAA,CAAC,gBAEvD,CAAM,CAAC,CACL,CAAC,cACLtD,IAAA,QAAKqD,SAAS,CAAC,qGAAqG,CAAM,CAAC,cAC3HrD,IAAA,MAAGqD,SAAS,CAAC,wDAAwD,CAAAC,QAAA,CAAC,2FAEtE,CAAG,CAAC,EACD,CAAC,cACNtD,IAAA,QAAKqD,SAAS,CAAC,wIAAwI,CAAAC,QAAA,cACrJtD,IAAA,CAACP,aAAa,EAACiE,eAAe,CAAC,+BAA+B,CAAAJ,QAAA,cAC5DtD,IAAA,CAACV,YAAY,EAACkB,KAAK,CAAEA,KAAM,CAAE,CAAC,CACjB,CAAC,CACb,CAAC,EACH,CAAC,CACC,CAAC,cAGVN,KAAA,YAAS+B,EAAE,CAAC,uBAAuB,CAACoB,SAAS,CAAC,OAAO,CAAAC,QAAA,eACnDpD,KAAA,QAAKmD,SAAS,CAAC,kBAAkB,CAAAC,QAAA,eAC/BtD,IAAA,OAAIqD,SAAS,CAAC,yBAAyB,CAAAC,QAAA,cACrCtD,IAAA,SAAMqD,SAAS,CAAC,sCAAsC,CAAAC,QAAA,CAAC,uBAEvD,CAAM,CAAC,CACL,CAAC,cACLtD,IAAA,QAAKqD,SAAS,CAAC,qGAAqG,CAAM,CAAC,cAC3HrD,IAAA,MAAGqD,SAAS,CAAC,wDAAwD,CAAAC,QAAA,CAAC,yFAEtE,CAAG,CAAC,EACD,CAAC,cACNtD,IAAA,QAAKqD,SAAS,CAAC,uCAAuC,CAAAC,QAAA,CACnDhD,UAAU,CAACU,MAAM,CAAG,CAAC,cACpBd,KAAA,CAAAE,SAAA,EAAAkD,QAAA,eACEtD,IAAA,CAACP,aAAa,EAACiE,eAAe,CAAC,8BAA8B,CAAAJ,QAAA,cAC3DtD,IAAA,CAACb,YAAY,EAACwE,IAAI,CAAErD,UAAU,CAACsD,KAAK,CAAC,CAAC,EAAE,CAAE,CAAE,CAAC,CAChC,CAAC,cAChB5D,IAAA,CAACP,aAAa,EAACiE,eAAe,CAAC,8BAA8B,CAAAJ,QAAA,cAC3DtD,IAAA,CAACZ,YAAY,EAACuE,IAAI,CAAErD,UAAU,CAACsD,KAAK,CAAC,CAAC,EAAE,CAAE,CAAE,CAAC,CAChC,CAAC,cAChB5D,IAAA,CAACP,aAAa,EAACiE,eAAe,CAAC,iCAAiC,CAAAJ,QAAA,cAC9DtD,IAAA,CAACX,oBAAoB,EAACsE,IAAI,CAAErD,UAAU,CAACsD,KAAK,CAAC,CAAC,EAAE,CAAE,CAAE,CAAC,CACxC,CAAC,EAChB,CAAC,cAEH1D,KAAA,QAAKmD,SAAS,CAAC,iCAAiC,CAAAC,QAAA,eAC9CtD,IAAA,QAAKqD,SAAS,CAAC,4BAA4B,CAAAC,QAAA,CAAC,gCAA8B,CAAK,CAAC,cAChFtD,IAAA,QAAKqD,SAAS,CAAC,eAAe,CAAAC,QAAA,CAAC,iDAA+C,CAAK,CAAC,EACjF,CACN,CACE,CAAC,EACC,CAAC,cAGVpD,KAAA,YAAS+B,EAAE,CAAC,wBAAwB,CAACoB,SAAS,CAAC,OAAO,CAAAC,QAAA,eACpDpD,KAAA,QAAKmD,SAAS,CAAC,kBAAkB,CAAAC,QAAA,eAC/BtD,IAAA,OAAIqD,SAAS,CAAC,yBAAyB,CAAAC,QAAA,cACrCtD,IAAA,SAAMqD,SAAS,CAAC,sCAAsC,CAAAC,QAAA,CAAC,+BAEvD,CAAM,CAAC,CACL,CAAC,cACLtD,IAAA,QAAKqD,SAAS,CAAC,0GAA0G,CAAM,CAAC,cAChIrD,IAAA,MAAGqD,SAAS,CAAC,mEAAmE,CAAAC,QAAA,CAAC,2GAEjF,CAAG,CAAC,EACD,CAAC,cAENpD,KAAA,QAAKmD,SAAS,CAAC,uCAAuC,CAAAC,QAAA,eAEpDtD,IAAA,QAAKqD,SAAS,CAAC,eAAe,CAAAC,QAAA,cAC5BtD,IAAA,CAACP,aAAa,EAACiE,eAAe,CAAC,8BAA8B,CAAAJ,QAAA,cAC3DtD,IAAA,CAACT,WAAW,EAACe,UAAU,CAAEA,UAAW,CAAE,CAAC,CAC1B,CAAC,CACb,CAAC,cAGNN,IAAA,QAAKqD,SAAS,CAAC,eAAe,CAAAC,QAAA,cAC5BtD,IAAA,CAACP,aAAa,EAACiE,eAAe,CAAC,+BAA+B,CAAAJ,QAAA,cAC5DtD,IAAA,CAACR,aAAa,EAACc,UAAU,CAAEA,UAAW,CAAE,CAAC,CAC5B,CAAC,CACb,CAAC,EACH,CAAC,EACC,CAAC,cAGVN,IAAA,YAASqD,SAAS,CAAC,OAAO,CAAAC,QAAA,cACxBpD,KAAA,QAAKmD,SAAS,CAAC,0GAA0G,CAAAC,QAAA,eACvHtD,IAAA,OAAIqD,SAAS,CAAC,oCAAoC,CAAAC,QAAA,cAChDtD,IAAA,SAAMqD,SAAS,CAAC,sCAAsC,CAAAC,QAAA,CAAC,wBAEvD,CAAM,CAAC,CACL,CAAC,cACLtD,IAAA,QAAKqD,SAAS,CAAC,0GAA0G,CAAM,CAAC,cAEhInD,KAAA,QAAKmD,SAAS,CAAC,sDAAsD,CAAAC,QAAA,eACnEpD,KAAA,QAAKmD,SAAS,CAAC,wFAAwF,CAAAC,QAAA,eACrGtD,IAAA,QAAKqD,SAAS,CAAC,mCAAmC,CAAAC,QAAA,cAACtD,IAAA,CAACJ,UAAU,GAAE,CAAC,CAAK,CAAC,cACvEI,IAAA,OAAIqD,SAAS,CAAC,qCAAqC,CAAAC,QAAA,CAAC,eAAa,CAAI,CAAC,cACtEtD,IAAA,MAAGqD,SAAS,CAAC,oCAAoC,CAAAC,QAAA,CAAE9C,KAAK,CAACQ,MAAM,CAAI,CAAC,cACpEhB,IAAA,MAAGqD,SAAS,CAAC,mCAAmC,CAAAC,QAAA,CAAC,mBAAiB,CAAG,CAAC,EACnE,CAAC,cACNpD,KAAA,QAAKmD,SAAS,CAAC,wFAAwF,CAAAC,QAAA,eACrGtD,IAAA,QAAKqD,SAAS,CAAC,qCAAqC,CAAAC,QAAA,cAACtD,IAAA,CAACN,MAAM,GAAE,CAAC,CAAK,CAAC,cACrEM,IAAA,OAAIqD,SAAS,CAAC,qCAAqC,CAAAC,QAAA,CAAC,cAAY,CAAI,CAAC,cACrEtD,IAAA,MAAGqD,SAAS,CAAC,oCAAoC,CAAAC,QAAA,CAAE9C,KAAK,CAACQ,MAAM,CAAI,CAAC,cACpEhB,IAAA,MAAGqD,SAAS,CAAC,mCAAmC,CAAAC,QAAA,CAAC,mBAAiB,CAAG,CAAC,EACnE,CAAC,cACNpD,KAAA,QAAKmD,SAAS,CAAC,wFAAwF,CAAAC,QAAA,eACrGtD,IAAA,QAAKqD,SAAS,CAAC,oCAAoC,CAAAC,QAAA,cAACtD,IAAA,CAACF,WAAW,GAAE,CAAC,CAAK,CAAC,cACzEE,IAAA,OAAIqD,SAAS,CAAC,qCAAqC,CAAAC,QAAA,CAAC,aAAW,CAAI,CAAC,cACpEtD,IAAA,MAAGqD,SAAS,CAAC,oCAAoC,CAAAC,QAAA,CAAEhD,UAAU,CAACU,MAAM,CAAI,CAAC,cACzEhB,IAAA,MAAGqD,SAAS,CAAC,mCAAmC,CAAAC,QAAA,CAAC,mBAAiB,CAAG,CAAC,EACnE,CAAC,cACNpD,KAAA,QAAKmD,SAAS,CAAC,wFAAwF,CAAAC,QAAA,eACrGtD,IAAA,QAAKqD,SAAS,CAAC,mCAAmC,CAAAC,QAAA,cAACtD,IAAA,CAACH,SAAS,GAAE,CAAC,CAAK,CAAC,cACtEG,IAAA,OAAIqD,SAAS,CAAC,qCAAqC,CAAAC,QAAA,CAAC,aAAW,CAAI,CAAC,cACpEtD,IAAA,MAAGqD,SAAS,CAAC,qCAAqC,CAAAC,QAAA,CAC/CvC,aAAa,CAAG,GAAI,CAAA4B,IAAI,CAAC5B,aAAa,CAAC8B,SAAS,CAAC,CAACY,kBAAkB,CAAC,CAAC,CAAG,KAAK,CAC9E,CAAC,cACJzD,IAAA,MAAGqD,SAAS,CAAC,mCAAmC,CAAAC,QAAA,CAAC,aAAW,CAAG,CAAC,EAC7D,CAAC,EACH,CAAC,EACH,CAAC,CACC,CAAC,cAGVtD,IAAA,WAAQqD,SAAS,CAAC,kEAAkE,CAAAC,QAAA,cAClFtD,IAAA,QAAKqD,SAAS,CAAC,gFAAgF,CAAAC,QAAA,cAC7FpD,KAAA,QAAKmD,SAAS,CAAC,+BAA+B,CAAAC,QAAA,eAC5CpD,KAAA,QAAKmD,SAAS,CAAC,MAAM,CAAAC,QAAA,eACnBtD,IAAA,OAAIqD,SAAS,CAAC,gDAAgD,CAAAC,QAAA,cAC5DtD,IAAA,SAAMqD,SAAS,CAAC,sCAAsC,CAAAC,QAAA,CAAC,mBAEvD,CAAM,CAAC,CACL,CAAC,cACLtD,IAAA,QAAKqD,SAAS,CAAC,qGAAqG,CAAM,CAAC,EACxH,CAAC,cACNrD,IAAA,MAAGqD,SAAS,CAAC,0DAA0D,CAAAC,QAAA,CAAC,kFAExE,CAAG,CAAC,cACJtD,IAAA,QAAKqD,SAAS,CAAC,+BAA+B,CAAAC,QAAA,cAC5CpD,KAAA,QAAKmD,SAAS,CAAC,+EAA+E,CAAAC,QAAA,eAC5FpD,KAAA,QAAKmD,SAAS,CAAC,YAAY,CAAAC,QAAA,eACzBtD,IAAA,MAAGqD,SAAS,CAAC,mBAAmB,CAAAC,QAAA,CAAC,yBAAuB,CAAG,CAAC,cAC5DtD,IAAA,MAAGqD,SAAS,CAAC,4BAA4B,CAAAC,QAAA,CAAC,iDAA+C,CAAG,CAAC,EAC1F,CAAC,cACNpD,KAAA,QAAKmD,SAAS,CAAC,uBAAuB,CAAAC,QAAA,eACpCtD,IAAA,MAAGqD,SAAS,CAAC,eAAe,CAAAC,QAAA,CAAC,gCAAgC,CAAG,CAAC,cACjEtD,IAAA,MAAGqD,SAAS,CAAC,4BAA4B,CAAAC,QAAA,CAAC,gCAA8B,CAAG,CAAC,EACzE,CAAC,EACH,CAAC,CACH,CAAC,EACH,CAAC,CACH,CAAC,CACA,CAAC,EACN,CAAC,CAEV,CAAC,CAED,cAAe,CAAAjD,SAAS","ignoreList":[]},"metadata":{},"sourceType":"module","externalDependencies":[]}